time,counter,roll,pitch,yaw,rollAccel,pitchAccel,yawAccel,xPosition,yPosition,altitude,rollError,pitchError,rollInput,pitchInput,yawInput,verticalInput,motorFrontLeftInput,motorFrontRightInput,motorRearLeftInput,motorRearRightInput,Speed_X,Speed_Y,Speed_Z,statusTakeoff,statusHome,statusAruco,statusLanding
2023/10/01 18:16:01,0,0.0,-0.02,-0.0,0.15,-1.17,-0.0,-0.0,-0.0,-2.99,0.06,-0.13,1.19,-8.68,0.0,1.5,0.0,0.0,0.0,0.0,-0.07,-0.02,-0.02,0.0,0.0,0.0,0.0
2023/10/01 18:16:01,1,0.01,-0.05,-0.0,0.17,-1.97,-0.0,-0.0,-0.0,-2.99,0.06,-0.13,1.5,-15.41,0.02,1.5,0.0,0.0,0.0,0.0,-0.13,-0.02,-0.08,0.0,0.0,0.0,0.0
2023/10/01 18:16:01,2,0.01,-0.04,-0.0,0.08,0.82,-0.0,-0.0,-0.0,-2.99,0.06,-0.13,0.92,4.6,0.02,1.5,0.0,0.0,0.0,0.0,0.06,-0.01,0.08,0.0,0.0,0.0,0.0
2023/10/01 18:16:01,3,0.01,-0.04,-0.0,0.1,-0.04,-0.0,-0.0,-0.0,-2.99,0.06,-0.13,1.1,-1.49,0.01,1.5,0.0,0.0,0.0,0.0,0.0,-0.01,0.02,0.0,0.0,0.0,0.0
2023/10/01 18:16:01,4,0.01,-0.05,-0.0,0.12,-0.89,-0.01,-0.0,-0.0,-2.99,0.06,-0.13,1.32,-7.94,0.04,1.5,0.0,0.0,0.0,0.0,-0.05,-0.01,-0.04,0.0,0.0,0.0,0.0
2023/10/01 18:16:01,5,0.01,-0.05,-0.0,0.0,0.3,-0.0,-0.0,-0.0,-2.99,0.06,-0.13,0.52,0.55,-0.01,1.5,0.0,0.0,0.0,0.0,0.02,-0.0,0.05,0.0,0.0,0.0,0.0
2023/10/01 18:16:01,6,0.01,-0.06,-0.0,0.02,-0.49,-0.0,-0.0,-0.0,-2.99,0.06,-0.13,0.64,-5.27,0.02,1.5,0.0,0.0,0.0,0.0,-0.03,-0.0,-0.02,0.0,0.0,0.0,0.0
2023/10/01 18:16:01,7,0.01,-0.05,-0.0,0.02,0.17,-0.0,-0.0,-0.0,-2.99,0.06,-0.13,0.64,-0.55,-0.0,1.5,0.0,0.0,0.0,0.0,0.01,-0.0,0.02,0.0,0.0,0.0,0.0
2023/10/01 18:16:01,8,0.01,-0.06,-0.0,0.01,-0.74,-0.0,-0.0,-0.0,-2.99,0.06,-0.13,0.58,-7.29,0.02,1.5,0.0,0.0,0.0,0.0,-0.05,-0.0,-0.03,0.0,0.0,0.0,0.0
2023/10/01 18:16:01,9,0.01,-0.06,-0.0,0.0,0.29,-0.0,-0.0,-0.0,-2.99,0.06,-0.13,0.57,0.09,-0.01,1.5,0.0,0.0,0.0,0.0,0.02,-0.0,0.02,0.0,0.0,0.0,0.0
2023/10/01 18:16:01,10,0.01,-0.06,-0.0,0.0,0.02,-0.0,-0.0,-0.0,-2.99,0.06,-0.13,0.57,-1.81,0.0,1.5,0.0,0.0,0.0,0.0,0.0,-0.0,0.01,0.0,0.0,0.0,0.0
2023/10/01 18:16:01,11,0.01,-0.06,-0.0,0.0,0.01,-0.0,-0.0,-0.0,-2.99,0.06,-0.13,0.57,-1.85,0.0,1.5,0.0,0.0,0.0,0.0,0.0,-0.0,0.01,0.0,0.0,0.0,0.0
2023/10/01 18:16:01,12,0.01,-0.06,-0.0,0.0,0.01,-0.0,-0.0,-0.0,-2.99,0.06,-0.13,0.56,-1.86,0.0,1.5,0.0,0.0,0.0,0.0,0.0,-0.0,0.0,0.0,0.0,0.0,0.0
2023/10/01 18:16:01,13,0.01,-0.06,-0.0,0.0,0.01,-0.0,-0.0,-0.0,-2.99,0.06,-0.13,0.56,-1.87,0.0,1.5,0.0,0.0,0.0,0.0,0.0,-0.0,0.0,0.0,0.0,0.0,0.0
2023/10/01 18:16:01,14,0.01,-0.06,-0.0,0.0,0.01,-0.0,-0.0,-0.0,-2.99,0.06,-0.13,0.56,-1.88,0.0,1.5,0.0,0.0,0.0,0.0,0.0,-0.0,0.0,0.0,0.0,0.0,0.0
2023/10/01 18:16:01,15,0.01,-0.06,-0.0,0.0,0.01,-0.0,-0.0,-0.0,-2.99,0.06,-0.13,0.56,-1.89,0.0,1.5,0.0,0.0,0.0,0.0,0.0,-0.0,0.0,0.0,0.0,0.0,0.0
2023/10/01 18:16:01,16,0.01,-0.06,-0.0,0.0,0.0,-0.0,-0.0,-0.0,-2.99,0.06,-0.13,0.56,-1.89,0.0,1.5,0.0,0.0,0.0,0.0,0.0,-0.0,0.0,0.0,0.0,0.0,0.0
2023/10/01 18:16:01,17,0.01,-0.06,-0.0,0.0,0.0,-0.0,-0.0,-0.0,-2.99,0.06,-0.13,0.56,-1.9,0.0,1.5,0.0,0.0,0.0,0.0,0.0,-0.0,0.0,0.0,0.0,0.0,0.0
2023/10/01 18:16:01,18,0.01,-0.06,-0.0,0.0,0.0,-0.0,-0.0,-0.0,-2.99,0.06,-0.13,0.56,-1.9,0.0,1.5,0.0,0.0,0.0,0.0,0.0,-0.0,0.0,0.0,0.0,0.0,0.0
2023/10/01 18:16:01,19,0.01,-0.06,-0.0,0.0,0.0,-0.0,-0.0,-0.0,-2.99,0.06,-0.13,0.56,-1.9,0.0,1.5,0.0,0.0,0.0,0.0,0.0,-0.0,0.0,0.0,0.0,0.0,0.0
2023/10/01 18:16:01,20,0.01,-0.06,-0.0,0.0,0.0,-0.0,-0.0,-0.0,-2.99,0.06,-0.13,0.55,-1.91,0.0,1.5,0.0,0.0,0.0,0.0,0.0,-0.0,0.0,0.0,0.0,0.0,0.0
2023/10/01 18:16:01,21,0.01,-0.06,-0.0,0.0,0.0,-0.0,-0.0,-0.0,-2.99,0.06,-0.13,0.55,-1.91,0.0,1.5,0.0,0.0,0.0,0.0,0.0,-0.0,0.0,0.0,0.0,0.0,0.0
2023/10/01 18:16:01,22,0.01,-0.06,-0.0,0.0,0.0,-0.0,-0.0,-0.0,-2.99,0.06,-0.13,0.55,-1.91,0.0,1.5,0.0,0.0,0.0,0.0,0.0,-0.0,0.0,0.0,0.0,0.0,0.0
2023/10/01 18:16:01,23,0.01,-0.06,-0.0,0.0,0.0,-0.0,-0.0,-0.0,-2.99,0.06,-0.13,0.55,-1.91,0.0,1.5,0.0,0.0,0.0,0.0,0.0,-0.0,0.0,0.0,0.0,0.0,0.0
2023/10/01 18:16:01,24,0.01,-0.06,-0.0,0.0,0.0,-0.0,-0.0,-0.0,-2.99,0.06,-0.13,0.55,-1.91,0.0,1.5,0.0,0.0,0.0,0.0,0.0,-0.0,0.0,0.0,0.0,0.0,0.0
2023/10/01 18:16:01,25,0.01,-0.06,-0.0,0.0,0.0,-0.0,-0.0,-0.0,-2.99,0.06,-0.13,0.55,-1.91,0.0,1.5,0.0,0.0,0.0,0.0,0.0,-0.0,0.0,0.0,0.0,0.0,0.0
2023/10/01 18:16:01,26,0.01,-0.06,-0.0,0.0,0.0,-0.0,-0.0,-0.0,-2.99,0.06,-0.13,0.55,-1.91,0.0,1.5,0.0,0.0,0.0,0.0,0.0,-0.0,0.0,0.0,0.0,0.0,0.0
2023/10/01 18:16:01,27,0.01,-0.06,-0.0,0.0,0.0,-0.0,-0.0,-0.0,-2.99,0.06,-0.13,0.55,-1.91,0.0,1.5,0.0,0.0,0.0,0.0,0.0,-0.0,0.0,0.0,0.0,0.0,0.0
2023/10/01 18:16:01,28,0.01,-0.06,-0.0,0.0,0.0,-0.0,-0.0,-0.0,-2.99,0.06,-0.13,0.55,-1.91,0.0,1.5,0.0,0.0,0.0,0.0,0.0,-0.0,0.0,0.0,0.0,0.0,0.0
2023/10/01 18:16:01,29,0.01,-0.06,-0.0,0.0,0.0,-0.0,-0.0,-0.0,-2.99,0.06,-0.13,0.55,-1.91,0.0,1.5,0.0,0.0,0.0,0.0,0.0,-0.0,0.0,0.0,0.0,0.0,0.0
2023/10/01 18:16:01,30,0.01,-0.06,-0.0,0.0,0.0,-0.0,-0.0,-0.0,-2.99,0.06,-0.13,0.55,-1.91,0.0,1.5,0.0,0.0,0.0,0.0,0.0,-0.0,0.0,0.0,0.0,0.0,0.0
2023/10/01 18:16:01,31,0.01,-0.06,-0.0,0.0,0.0,-0.0,-0.0,-0.0,-2.99,0.06,-0.13,0.55,-1.91,0.0,1.5,0.0,0.0,0.0,0.0,0.0,-0.0,0.0,0.0,0.0,0.0,0.0
2023/10/01 18:16:01,32,0.01,-0.06,-0.0,0.0,0.0,-0.0,-0.0,-0.0,-2.99,0.06,-0.13,0.55,-1.91,0.0,1.5,0.0,0.0,0.0,0.0,0.0,-0.0,0.0,0.0,0.0,0.0,0.0
2023/10/01 18:16:01,33,0.01,-0.06,-0.0,0.0,0.0,-0.0,-0.0,-0.0,-2.99,0.06,-0.13,0.55,-1.91,0.0,1.5,0.0,0.0,0.0,0.0,0.0,-0.0,0.0,0.0,0.0,0.0,0.0
2023/10/01 18:16:01,34,0.01,-0.06,-0.0,0.0,0.0,-0.0,-0.0,-0.0,-2.99,0.06,-0.13,0.55,-1.91,0.0,1.5,0.0,0.0,0.0,0.0,0.0,-0.0,0.0,0.0,0.0,0.0,0.0
2023/10/01 18:16:01,35,0.01,-0.06,-0.0,0.0,0.0,-0.0,-0.0,-0.0,-2.99,0.06,-0.13,0.55,-1.91,0.0,1.5,0.0,0.0,0.0,0.0,0.0,-0.0,0.0,0.0,0.0,0.0,0.0
2023/10/01 18:16:01,36,0.01,-0.06,-0.0,0.0,0.0,-0.0,-0.0,-0.0,-2.99,0.06,-0.13,0.55,-1.91,0.0,1.5,0.0,0.0,0.0,0.0,0.0,-0.0,0.0,0.0,0.0,0.0,0.0
2023/10/01 18:16:01,37,0.01,-0.06,-0.0,0.0,0.0,-0.0,-0.0,-0.0,-2.99,0.06,-0.13,0.55,-1.91,0.0,1.5,0.0,0.0,0.0,0.0,0.0,-0.0,0.0,0.0,0.0,0.0,0.0
2023/10/01 18:16:01,38,0.01,-0.06,-0.0,0.0,0.0,-0.0,-0.0,-0.0,-2.99,0.06,-0.13,0.55,-1.91,0.0,1.5,0.0,0.0,0.0,0.0,0.0,-0.0,0.0,0.0,0.0,0.0,0.0
2023/10/01 18:16:01,39,0.01,-0.06,-0.0,0.0,0.0,-0.0,-0.0,-0.0,-2.99,0.06,-0.13,0.55,-1.91,0.0,1.5,0.0,0.0,0.0,0.0,0.0,-0.0,0.0,0.0,0.0,0.0,0.0
2023/10/01 18:16:01,40,0.01,-0.06,-0.0,0.0,0.0,-0.0,-0.0,-0.0,-2.99,0.06,-0.13,0.55,-1.91,0.0,1.5,0.0,0.0,0.0,0.0,0.0,-0.0,0.0,0.0,0.0,0.0,0.0
2023/10/01 18:16:01,41,0.01,-0.06,-0.0,0.0,0.0,-0.0,-0.0,-0.0,-2.99,0.06,-0.13,0.55,-1.91,0.0,1.5,0.0,0.0,0.0,0.0,0.0,-0.0,0.0,0.0,0.0,0.0,0.0
2023/10/01 18:16:01,42,0.01,-0.06,-0.0,0.0,0.0,0.0,-0.0,-0.0,-2.99,0.06,-0.13,0.55,-1.91,0.0,1.5,0.0,0.0,0.0,0.0,0.0,-0.0,0.0,0.0,0.0,0.0,0.0
2023/10/01 18:16:01,43,0.01,-0.06,-0.0,0.0,0.0,0.0,-0.0,-0.0,-2.99,0.06,-0.13,0.55,-1.91,0.0,1.5,0.0,0.0,0.0,0.0,0.0,-0.0,0.0,0.0,0.0,0.0,0.0
2023/10/01 18:16:01,44,0.01,-0.06,-0.0,0.0,0.0,0.0,-0.0,-0.0,-2.99,0.06,-0.13,0.55,-1.91,0.0,1.5,0.0,0.0,0.0,0.0,0.0,-0.0,0.0,0.0,0.0,0.0,0.0
2023/10/01 18:16:01,45,0.01,-0.06,-0.0,0.0,0.0,0.0,-0.0,-0.0,-2.99,0.06,-0.13,0.55,-1.91,0.0,1.5,0.0,0.0,0.0,0.0,0.0,-0.0,0.0,0.0,0.0,0.0,0.0
2023/10/01 18:16:01,46,0.01,-0.06,-0.0,0.0,0.0,0.0,-0.0,-0.0,-2.99,0.06,-0.13,0.55,-1.91,0.0,1.5,0.0,0.0,0.0,0.0,0.0,-0.0,0.0,0.0,0.0,0.0,0.0
2023/10/01 18:16:01,47,0.01,-0.06,-0.0,0.0,0.0,0.0,-0.0,-0.0,-2.99,0.06,-0.13,0.55,-1.91,0.0,1.5,0.0,0.0,0.0,0.0,0.0,-0.0,0.0,0.0,0.0,0.0,0.0
2023/10/01 18:16:01,48,0.01,-0.06,-0.0,0.0,0.0,0.0,-0.0,-0.0,-2.99,0.06,-0.13,0.55,-1.91,0.0,1.5,0.0,0.0,0.0,0.0,0.0,-0.0,0.0,0.0,0.0,0.0,0.0
2023/10/01 18:16:01,49,0.01,-0.06,-0.0,0.0,0.0,0.0,-0.0,-0.0,-2.99,0.06,-0.13,0.55,-1.91,0.0,1.5,0.0,0.0,0.0,0.0,0.0,-0.0,0.0,0.0,0.0,0.0,0.0
2023/10/01 18:16:01,50,0.01,-0.06,-0.0,0.0,0.0,0.0,-0.0,-0.0,-2.99,0.06,-0.13,0.55,-1.91,0.0,1.5,0.0,0.0,0.0,0.0,0.0,-0.0,0.0,0.0,0.0,0.0,0.0
2023/10/01 18:16:01,51,0.01,-0.06,-0.0,0.0,0.0,0.0,-0.0,-0.0,-2.99,0.06,-0.13,0.55,-1.91,0.0,1.5,0.0,0.0,0.0,0.0,0.0,-0.0,0.0,0.0,0.0,0.0,0.0
2023/10/01 18:16:01,52,0.01,-0.06,-0.0,0.0,0.0,0.0,-0.0,-0.0,-2.99,0.06,-0.13,0.55,-1.91,0.0,1.5,0.0,0.0,0.0,0.0,0.0,-0.0,0.0,0.0,0.0,0.0,0.0
2023/10/01 18:16:02,53,0.01,-0.06,-0.0,0.0,0.0,0.0,-0.0,-0.0,-2.99,0.06,-0.13,0.55,-1.91,0.0,1.5,0.0,0.0,0.0,0.0,0.0,-0.0,0.0,0.0,0.0,0.0,0.0
2023/10/01 18:16:02,54,0.01,-0.06,-0.0,0.0,0.0,0.0,-0.0,-0.0,-2.99,0.06,-0.13,0.55,-1.91,0.0,1.5,0.0,0.0,0.0,0.0,0.0,-0.0,0.0,0.0,0.0,0.0,0.0
2023/10/01 18:16:02,55,0.01,-0.06,-0.0,0.0,0.0,0.0,-0.0,-0.0,-2.99,0.06,-0.13,0.55,-1.91,0.0,1.5,0.0,0.0,0.0,0.0,0.0,-0.0,0.0,0.0,0.0,0.0,0.0
2023/10/01 18:16:02,56,0.01,-0.06,-0.0,0.0,0.0,0.0,-0.0,-0.0,-2.99,0.06,-0.13,0.55,-1.91,0.0,1.5,0.0,0.0,0.0,0.0,0.0,-0.0,0.0,0.0,0.0,0.0,0.0
2023/10/01 18:16:02,57,0.01,-0.06,-0.0,0.0,0.0,0.0,-0.0,-0.0,-2.99,0.06,-0.13,0.55,-1.91,0.0,1.5,0.0,0.0,0.0,0.0,0.0,-0.0,0.0,0.0,0.0,0.0,0.0
2023/10/01 18:16:02,58,0.01,-0.06,-0.0,0.0,0.0,0.0,-0.0,-0.0,-2.99,0.06,-0.13,0.55,-1.91,0.0,1.5,0.0,0.0,0.0,0.0,0.0,-0.0,0.0,0.0,0.0,0.0,0.0
2023/10/01 18:16:02,59,0.01,-0.06,-0.0,0.0,0.0,0.0,-0.0,-0.0,-2.99,0.06,-0.13,0.55,-1.91,0.0,1.5,0.0,0.0,0.0,0.0,0.0,-0.0,0.0,0.0,0.0,0.0,0.0
2023/10/01 18:16:02,60,0.01,-0.06,-0.0,0.0,0.0,0.0,-0.0,-0.0,-2.99,0.06,-0.13,0.55,-1.91,0.0,1.5,0.0,0.0,0.0,0.0,0.0,-0.0,0.0,0.0,0.0,0.0,0.0
2023/10/01 18:16:02,61,0.01,-0.06,-0.0,0.0,0.0,0.0,-0.0,-0.0,-2.99,0.06,-0.13,0.55,-1.91,0.0,1.5,0.0,0.0,0.0,0.0,0.0,-0.0,0.0,0.0,0.0,0.0,0.0
2023/10/01 18:16:02,62,0.01,-0.06,-0.0,0.0,0.0,0.0,-0.0,-0.0,-2.99,0.06,-0.13,0.55,-1.91,0.0,1.5,0.0,0.0,0.0,0.0,0.0,-0.0,0.0,0.0,0.0,0.0,0.0
2023/10/01 18:16:02,63,0.01,-0.06,-0.0,0.0,0.0,0.0,-0.0,-0.0,-2.99,0.06,-0.13,0.55,-1.91,0.0,1.5,0.0,0.0,0.0,0.0,0.0,-0.0,0.0,0.0,0.0,0.0,0.0
2023/10/01 18:16:02,64,0.01,-0.06,-0.0,0.0,0.0,0.0,-0.0,-0.0,-2.99,0.06,-0.13,0.55,-1.91,0.0,1.5,0.0,0.0,0.0,0.0,0.0,-0.0,0.0,0.0,0.0,0.0,0.0
2023/10/01 18:16:02,65,0.01,-0.06,-0.0,0.0,0.0,0.0,-0.0,-0.0,-2.99,0.06,-0.13,0.55,-1.91,0.0,1.5,0.0,0.0,0.0,0.0,0.0,-0.0,0.0,0.0,0.0,0.0,0.0
2023/10/01 18:16:02,66,0.01,-0.06,-0.0,0.0,0.0,0.0,-0.0,-0.0,-2.99,0.06,-0.13,0.55,-1.91,0.0,1.5,0.0,0.0,0.0,0.0,0.0,-0.0,0.0,0.0,0.0,0.0,0.0
2023/10/01 18:16:02,67,0.01,-0.06,-0.0,0.0,0.0,0.0,-0.0,-0.0,-2.99,0.06,-0.13,0.55,-1.91,0.0,1.5,0.0,0.0,0.0,0.0,0.0,-0.0,0.0,0.0,0.0,0.0,0.0
2023/10/01 18:16:02,68,0.01,-0.06,-0.0,0.0,0.0,0.0,-0.0,-0.0,-2.99,0.06,-0.13,0.55,-1.91,0.0,1.5,0.0,0.0,0.0,0.0,0.0,-0.0,0.0,0.0,0.0,0.0,0.0
2023/10/01 18:16:02,69,0.01,-0.06,-0.0,0.0,0.0,0.0,-0.0,-0.0,-2.99,0.06,-0.13,0.55,-1.91,0.0,1.5,0.0,0.0,0.0,0.0,0.0,-0.0,0.0,0.0,0.0,0.0,0.0
2023/10/01 18:16:02,70,0.01,-0.06,-0.0,0.0,0.0,0.0,-0.0,-0.0,-2.99,0.06,-0.13,0.55,-1.91,0.0,1.5,0.0,0.0,0.0,0.0,0.0,-0.0,0.0,0.0,0.0,0.0,0.0
2023/10/01 18:16:02,71,0.01,-0.06,-0.0,0.0,0.0,0.0,-0.0,-0.0,-2.99,0.06,-0.13,0.55,-1.91,0.0,1.5,0.0,0.0,0.0,0.0,0.0,-0.0,0.0,0.0,0.0,0.0,0.0
2023/10/01 18:16:02,72,0.01,-0.06,-0.0,0.0,0.0,0.0,-0.0,-0.0,-2.99,0.06,-0.13,0.55,-1.91,0.0,1.5,67.53,68.64,71.36,72.47,0.0,-0.0,-0.0,1.0,0.0,0.0,0.0
2023/10/01 18:16:02,73,0.01,-0.06,-0.0,-0.0,0.0,0.0,-0.0,-0.0,-2.99,0.06,-0.13,0.55,-1.91,0.0,1.5,67.53,68.64,71.36,72.47,0.0,0.0,-0.0,1.0,0.0,0.0,0.0
2023/10/01 18:16:02,74,0.01,-0.06,-0.0,-0.0,-0.0,0.0,-0.0,-0.0,-2.99,0.06,-0.13,0.55,-1.92,0.0,1.5,67.53,68.64,71.36,72.47,-0.0,-0.0,-0.0,1.0,0.0,0.0,0.0
2023/10/01 18:16:02,75,0.01,-0.06,-0.0,-0.0,-0.0,0.0,-0.0,-0.0,-2.99,0.06,-0.13,0.55,-1.92,0.0,1.5,67.53,68.64,71.36,72.47,-0.0,-0.0,0.0,1.0,0.0,0.0,0.0
2023/10/01 18:16:02,76,0.01,-0.06,-0.0,-0.0,-0.0,0.0,-0.0,-0.0,-2.99,0.06,-0.13,0.55,-1.92,0.0,1.5,67.53,68.64,71.36,72.47,-0.0,-0.0,0.0,1.0,0.0,0.0,0.0
2023/10/01 18:16:02,77,0.01,-0.06,-0.0,-0.0,-0.0,0.0,-0.0,-0.0,-2.99,0.06,-0.13,0.55,-1.92,0.0,1.5,67.53,68.64,71.36,72.47,-0.0,-0.0,0.0,1.0,0.0,0.0,0.0
2023/10/01 18:16:02,78,0.01,-0.06,-0.0,0.0,-0.0,0.0,-0.0,-0.0,-2.99,0.06,-0.13,0.55,-1.92,0.0,1.5,67.53,68.64,71.36,72.47,-0.0,-0.0,0.0,1.0,0.0,0.0,0.0
2023/10/01 18:16:02,79,0.01,-0.06,-0.0,0.0,-0.0,0.0,-0.0,-0.0,-2.99,0.06,-0.13,0.55,-1.92,0.0,1.5,67.53,68.64,71.36,72.47,-0.0,-0.0,0.0,1.0,0.0,0.0,0.0
2023/10/01 18:16:02,80,0.01,-0.06,-0.0,0.0,-0.0,0.0,-0.0,-0.0,-2.99,0.06,-0.13,0.55,-1.92,0.0,1.5,67.53,68.64,71.36,72.47,-0.0,-0.0,0.0,1.0,0.0,0.0,0.0
2023/10/01 18:16:02,81,0.01,-0.06,-0.0,0.0,-0.0,0.0,-0.0,-0.0,-2.99,0.06,-0.13,0.55,-1.92,0.0,1.5,67.53,68.64,71.36,72.47,0.0,-0.0,0.0,1.0,0.0,0.0,0.0
2023/10/01 18:16:02,82,0.01,-0.06,-0.0,0.0,0.0,0.0,-0.0,-0.0,-2.99,0.06,-0.13,0.55,-1.91,0.0,1.5,67.53,68.64,71.36,72.47,0.0,-0.0,0.0,1.0,0.0,0.0,0.0
2023/10/01 18:16:02,83,0.01,-0.06,-0.0,0.0,0.0,0.0,-0.0,-0.0,-2.99,0.06,-0.13,0.55,-1.91,0.0,1.5,67.53,68.64,71.36,72.47,0.0,-0.0,0.0,1.0,0.0,0.0,0.0
2023/10/01 18:16:02,84,0.01,-0.06,-0.0,0.0,0.0,0.0,-0.0,-0.0,-2.99,0.06,-0.13,0.55,-1.91,0.0,1.5,67.53,68.64,71.36,72.47,0.0,-0.0,0.0,1.0,0.0,0.0,0.0
2023/10/01 18:16:02,85,0.01,-0.06,-0.0,0.0,0.0,0.0,-0.0,-0.0,-2.99,0.06,-0.13,0.55,-1.91,0.0,1.5,67.53,68.64,71.36,72.47,0.0,-0.0,0.0,1.0,0.0,0.0,0.0
2023/10/01 18:16:02,86,0.01,-0.06,-0.0,0.0,0.0,0.0,-0.0,-0.0,-2.99,0.06,-0.13,0.55,-1.91,0.0,1.5,67.53,68.64,71.36,72.47,0.0,-0.0,0.0,1.0,0.0,0.0,0.0
2023/10/01 18:16:02,87,0.01,-0.06,-0.0,0.0,0.0,0.0,-0.0,-0.0,-2.99,0.06,-0.13,0.55,-1.91,0.0,1.5,67.53,68.64,71.36,72.47,0.0,-0.0,0.0,1.0,0.0,0.0,0.0
2023/10/01 18:16:02,88,0.01,-0.06,-0.0,0.0,0.0,0.0,-0.0,-0.0,-2.99,0.06,-0.13,0.55,-1.91,0.0,1.5,67.53,68.64,71.36,72.47,0.0,-0.0,0.0,1.0,0.0,0.0,0.0
2023/10/01 18:16:02,89,0.01,-0.06,-0.0,0.0,0.0,0.0,-0.0,-0.0,-2.99,0.06,-0.13,0.55,-1.91,0.0,1.5,67.53,68.64,71.36,72.47,0.0,-0.0,0.0,1.0,0.0,0.0,0.0
2023/10/01 18:16:02,90,0.01,-0.06,-0.0,-0.0,0.0,0.0,-0.0,-0.0,-2.99,0.06,-0.13,0.55,-1.91,0.0,1.5,67.53,68.64,71.36,72.47,0.0,-0.0,0.0,1.0,0.0,0.0,0.0
2023/10/01 18:16:02,91,0.01,-0.06,-0.0,-0.0,0.0,0.0,-0.0,-0.0,-2.99,0.06,-0.13,0.55,-1.91,0.0,1.5,67.53,68.64,71.36,72.47,0.0,-0.0,0.0,1.0,0.0,0.0,0.0
2023/10/01 18:16:02,92,0.01,-0.06,-0.0,-0.0,0.0,0.0,-0.0,-0.0,-2.99,0.06,-0.13,0.55,-1.91,0.0,1.5,67.53,68.64,71.36,72.47,0.0,-0.0,0.0,1.0,0.0,0.0,0.0
2023/10/01 18:16:02,93,0.01,-0.06,-0.0,-0.0,0.0,0.0,-0.0,-0.0,-2.99,0.06,-0.13,0.55,-1.91,0.0,1.5,67.53,68.64,71.36,72.47,0.0,-0.0,0.0,1.0,0.0,0.0,0.0
2023/10/01 18:16:02,94,0.01,-0.06,-0.0,-0.0,0.0,0.0,-0.0,-0.0,-2.99,0.06,-0.13,0.55,-1.91,0.0,1.5,67.53,68.64,71.36,72.47,0.0,-0.0,0.0,1.0,0.0,0.0,0.0
2023/10/01 18:16:02,95,0.01,-0.06,-0.0,-0.0,0.0,0.0,-0.0,-0.0,-2.99,0.06,-0.13,0.55,-1.91,0.0,1.5,67.53,68.64,71.36,72.47,0.0,-0.0,0.0,1.0,0.0,0.0,0.0
2023/10/01 18:16:02,96,0.01,-0.06,-0.0,-0.0,0.0,0.0,-0.0,-0.0,-2.99,0.06,-0.13,0.55,-1.91,0.0,1.5,67.53,68.64,71.36,72.47,0.0,-0.0,0.0,1.0,0.0,0.0,0.0
2023/10/01 18:16:02,97,0.01,-0.06,-0.0,-0.0,0.0,0.0,-0.0,-0.0,-2.99,0.06,-0.13,0.55,-1.91,0.0,1.5,67.53,68.64,71.36,72.47,0.0,-0.0,0.0,1.0,0.0,0.0,0.0
2023/10/01 18:16:02,98,0.01,-0.06,-0.0,-0.0,0.0,0.0,-0.0,-0.0,-2.99,0.06,-0.13,0.55,-1.91,0.0,1.5,67.53,68.64,71.36,72.47,0.0,-0.0,0.0,1.0,0.0,0.0,0.0
2023/10/01 18:16:02,99,0.01,-0.06,-0.0,-0.0,0.0,0.0,-0.0,-0.0,-2.99,0.06,-0.13,0.55,-1.91,0.0,1.5,67.53,68.64,71.36,72.47,0.0,-0.0,0.0,1.0,0.0,0.0,0.0
2023/10/01 18:16:02,100,0.01,-0.06,-0.0,-0.0,0.0,0.0,-0.0,-0.0,-2.99,0.06,-0.13,0.55,-1.91,0.0,1.5,67.53,68.64,71.36,72.47,0.0,-0.0,0.0,1.0,0.0,0.0,0.0
2023/10/01 18:16:02,101,0.01,-0.06,-0.0,-0.0,0.0,0.0,-0.0,-0.0,-2.99,0.06,-0.13,0.55,-1.91,0.0,1.5,67.53,68.64,71.36,72.47,0.0,-0.0,0.0,1.0,0.0,0.0,0.0
2023/10/01 18:16:02,102,0.01,-0.06,-0.0,-0.0,0.0,0.0,-0.0,-0.0,-2.99,0.06,-0.13,0.55,-1.91,0.0,1.5,67.53,68.64,71.36,72.47,0.0,-0.0,0.0,1.0,0.0,0.0,0.0
2023/10/01 18:16:02,103,0.01,-0.06,-0.0,-0.0,0.0,0.0,-0.0,-0.0,-2.99,0.06,-0.13,0.55,-1.91,0.0,1.5,67.53,68.64,71.36,72.47,0.0,-0.0,0.0,1.0,0.0,0.0,0.0
2023/10/01 18:16:02,104,0.01,-0.06,-0.0,-0.0,0.0,0.0,-0.0,-0.0,-2.99,0.06,-0.13,0.55,-1.91,0.0,1.5,67.53,68.64,71.36,72.47,0.0,-0.0,0.0,1.0,0.0,0.0,0.0
2023/10/01 18:16:03,105,0.01,-0.06,-0.0,-0.0,0.0,0.0,-0.0,-0.0,-2.99,0.06,-0.13,0.55,-1.91,0.0,1.5,67.53,68.64,71.36,72.47,0.0,-0.0,0.0,1.0,0.0,0.0,0.0
2023/10/01 18:16:03,106,0.01,-0.06,-0.0,-0.0,0.0,0.0,-0.0,-0.0,-2.99,0.06,-0.13,0.55,-1.91,0.0,1.5,67.53,68.64,71.36,72.47,0.0,-0.0,0.0,1.0,0.0,0.0,0.0
2023/10/01 18:16:03,107,0.01,-0.06,-0.0,-0.0,0.0,0.0,-0.0,-0.0,-2.99,0.06,-0.13,0.55,-1.91,0.0,1.5,67.53,68.64,71.36,72.47,0.0,-0.0,0.0,1.0,0.0,0.0,0.0
2023/10/01 18:16:03,108,0.01,-0.06,-0.0,-0.0,0.0,0.0,-0.0,-0.0,-2.99,0.06,-0.13,0.55,-1.91,0.0,1.5,67.53,68.64,71.36,72.47,0.0,-0.0,0.0,1.0,0.0,0.0,0.0
2023/10/01 18:16:03,109,0.01,-0.06,-0.0,-0.0,0.0,0.0,-0.0,-0.0,-2.99,0.06,-0.13,0.55,-1.91,0.0,1.5,67.53,68.64,71.36,72.47,0.0,-0.0,0.0,1.0,0.0,0.0,0.0
2023/10/01 18:16:03,110,0.01,-0.06,-0.0,-0.0,0.0,0.0,-0.0,-0.0,-2.99,0.06,-0.13,0.55,-1.91,0.0,1.5,67.53,68.64,71.36,72.47,0.0,-0.0,0.0,1.0,0.0,0.0,0.0
2023/10/01 18:16:03,111,0.01,-0.06,-0.0,-0.0,0.0,0.0,-0.0,-0.0,-2.99,0.06,-0.13,0.55,-1.91,0.0,1.5,67.53,68.64,71.36,72.47,0.0,-0.0,0.0,1.0,0.0,0.0,0.0
2023/10/01 18:16:03,112,0.01,-0.06,-0.0,-0.0,0.0,0.0,-0.0,-0.0,-2.99,0.06,-0.13,0.55,-1.91,0.0,1.5,67.53,68.64,71.36,72.47,0.0,-0.0,0.0,1.0,0.0,0.0,0.0
2023/10/01 18:16:03,113,0.01,-0.06,-0.0,-0.0,0.0,0.0,-0.0,-0.0,-2.99,0.06,-0.13,0.55,-1.91,0.0,1.5,67.53,68.64,71.36,72.47,0.0,-0.0,0.0,1.0,0.0,0.0,0.0
2023/10/01 18:16:03,114,0.01,-0.06,-0.0,-0.0,0.0,0.0,-0.0,-0.0,-2.99,0.06,-0.13,0.55,-1.91,0.0,1.5,67.53,68.64,71.36,72.47,0.0,-0.0,0.0,1.0,0.0,0.0,0.0
2023/10/01 18:16:03,115,0.01,-0.06,-0.0,0.0,0.0,0.0,-0.0,-0.0,-2.99,0.06,-0.13,0.55,-1.91,0.0,1.5,67.53,68.64,71.36,72.47,0.0,-0.0,0.0,1.0,0.0,0.0,0.0
2023/10/01 18:16:03,116,0.01,-0.06,-0.0,0.0,0.0,0.0,-0.0,-0.0,-2.99,0.06,-0.13,0.55,-1.91,0.0,1.5,67.53,68.64,71.36,72.47,0.0,-0.0,0.0,1.0,0.0,0.0,0.0
2023/10/01 18:16:03,117,0.01,-0.06,-0.0,0.0,0.0,0.0,-0.0,-0.0,-2.99,0.06,-0.13,0.55,-1.91,0.0,1.5,67.53,68.64,71.36,72.47,0.0,-0.0,0.0,1.0,0.0,0.0,0.0
2023/10/01 18:16:03,118,0.01,-0.06,-0.0,0.0,0.0,0.0,-0.0,-0.0,-2.99,0.06,-0.13,0.55,-1.91,0.0,1.5,67.53,68.64,71.36,72.47,0.0,-0.0,0.0,1.0,0.0,0.0,0.0
2023/10/01 18:16:03,119,0.01,-0.06,-0.0,0.0,0.0,0.0,-0.0,-0.0,-2.99,0.06,-0.13,0.55,-1.91,0.0,1.5,67.53,68.64,71.36,72.47,0.0,-0.0,0.0,1.0,0.0,0.0,0.0
2023/10/01 18:16:03,120,0.01,-0.06,-0.0,0.0,0.0,0.0,-0.0,-0.0,-2.99,0.06,-0.13,0.55,-1.91,0.0,1.5,67.53,68.64,71.36,72.47,0.0,-0.0,0.0,1.0,0.0,0.0,0.0
2023/10/01 18:16:03,121,0.01,-0.06,-0.0,0.0,0.0,0.0,-0.0,-0.0,-2.99,0.06,-0.13,0.55,-1.91,0.0,1.5,67.53,68.64,71.36,72.47,0.0,-0.0,0.0,1.0,0.0,0.0,0.0
2023/10/01 18:16:03,122,0.01,-0.06,-0.0,0.0,0.0,0.0,-0.0,-0.0,-2.99,0.06,-0.13,0.55,-1.91,0.0,1.5,67.53,68.64,71.36,72.47,0.0,-0.0,0.0,1.0,0.0,0.0,0.0
2023/10/01 18:16:03,123,0.01,-0.06,-0.0,0.0,0.0,0.0,-0.0,-0.0,-2.99,0.06,-0.13,0.55,-1.91,0.0,1.5,67.53,68.64,71.36,72.47,0.0,-0.0,0.0,1.0,0.0,0.0,0.0
2023/10/01 18:16:03,124,0.01,-0.06,-0.0,0.0,0.0,0.0,-0.0,-0.0,-2.99,0.06,-0.13,0.55,-1.91,0.0,1.5,67.53,68.64,71.36,72.47,0.0,-0.0,0.0,1.0,0.0,0.0,0.0
2023/10/01 18:16:03,125,0.01,-0.06,-0.0,0.0,0.0,0.0,-0.0,-0.0,-2.99,0.06,-0.13,0.55,-1.91,0.0,1.5,67.53,68.64,71.36,72.47,0.0,-0.0,0.0,1.0,0.0,0.0,0.0
2023/10/01 18:16:03,126,0.01,-0.06,-0.0,0.0,0.0,0.0,-0.0,-0.0,-2.99,0.06,-0.13,0.55,-1.91,0.0,1.5,67.53,68.64,71.36,72.47,0.0,-0.0,0.0,1.0,0.0,0.0,0.0
2023/10/01 18:16:03,127,0.01,-0.06,-0.0,0.0,0.0,0.0,-0.0,-0.0,-2.99,0.06,-0.13,0.55,-1.91,0.0,1.5,67.53,68.64,71.36,72.47,0.0,-0.0,0.0,1.0,0.0,0.0,0.0
2023/10/01 18:16:03,128,0.01,-0.06,-0.0,0.0,0.0,0.0,-0.0,-0.0,-2.99,0.06,-0.13,0.55,-1.91,0.0,1.5,67.53,68.64,71.36,72.47,0.0,-0.0,0.0,1.0,0.0,0.0,0.0
2023/10/01 18:16:03,129,0.01,-0.06,-0.0,0.0,0.0,0.0,-0.0,-0.0,-2.99,0.06,-0.13,0.55,-1.91,0.0,1.5,67.53,68.64,71.36,72.47,0.0,-0.0,0.0,1.0,0.0,0.0,0.0
2023/10/01 18:16:03,130,0.01,-0.06,-0.0,0.0,0.0,0.0,-0.0,-0.0,-2.99,0.06,-0.13,0.55,-1.91,0.0,1.5,67.53,68.64,71.36,72.47,0.0,-0.0,0.0,1.0,0.0,0.0,0.0
2023/10/01 18:16:03,131,0.01,-0.06,-0.0,0.0,0.0,0.0,-0.0,-0.0,-2.99,0.06,-0.13,0.55,-1.91,0.0,1.5,67.53,68.64,71.36,72.47,0.0,-0.0,0.0,1.0,0.0,0.0,0.0
2023/10/01 18:16:03,132,0.01,-0.06,-0.0,0.0,0.0,0.0,-0.0,-0.0,-2.99,0.06,-0.13,0.55,-1.91,0.0,1.5,67.53,68.64,71.36,72.47,0.0,-0.0,0.0,1.0,0.0,0.0,0.0
2023/10/01 18:16:03,133,0.01,-0.06,-0.0,0.0,0.0,0.0,-0.0,-0.0,-2.99,0.06,-0.13,0.55,-1.91,0.0,1.5,67.53,68.64,71.36,72.47,0.0,-0.0,0.0,1.0,0.0,0.0,0.0
2023/10/01 18:16:03,134,0.01,-0.06,-0.0,0.0,0.0,0.0,-0.0,-0.0,-2.99,0.06,-0.13,0.55,-1.91,0.0,1.5,67.53,68.64,71.36,72.47,0.0,-0.0,0.0,1.0,0.0,0.0,0.0
2023/10/01 18:16:03,135,0.01,-0.06,-0.0,0.0,0.0,0.0,-0.0,-0.0,-2.99,0.06,-0.13,0.55,-1.91,0.0,1.5,67.53,68.64,71.36,72.47,0.0,-0.0,0.0,1.0,0.0,0.0,0.0
2023/10/01 18:16:03,136,0.01,-0.06,-0.0,0.0,0.0,0.0,-0.0,-0.0,-2.99,0.06,-0.13,0.55,-1.91,0.0,1.5,67.53,68.64,71.36,72.47,0.0,-0.0,0.0,1.0,0.0,0.0,0.0
2023/10/01 18:16:03,137,0.01,-0.06,-0.0,0.0,0.0,0.0,-0.0,-0.0,-2.99,0.06,-0.13,0.55,-1.91,0.0,1.5,67.53,68.64,71.36,72.47,0.0,-0.0,0.0,1.0,0.0,0.0,0.0
2023/10/01 18:16:03,138,0.01,-0.06,-0.0,0.0,0.0,0.0,-0.0,-0.0,-2.99,0.06,-0.13,0.55,-1.91,0.0,1.5,67.53,68.64,71.36,72.47,0.0,-0.0,0.0,1.0,0.0,0.0,0.0
2023/10/01 18:16:03,139,0.01,-0.06,-0.0,0.0,0.0,0.0,-0.0,-0.0,-2.99,0.06,-0.13,0.55,-1.91,0.0,1.5,67.53,68.64,71.36,72.46,0.0,-0.0,0.0,1.0,0.0,0.0,0.0
2023/10/01 18:16:03,140,0.01,-0.06,-0.0,0.0,0.0,0.0,-0.0,-0.0,-2.99,0.06,-0.13,0.55,-1.91,0.0,1.5,67.53,68.64,71.36,72.46,0.0,-0.0,0.0,1.0,0.0,0.0,0.0
2023/10/01 18:16:03,141,0.01,-0.06,-0.0,0.0,0.0,0.0,-0.0,-0.0,-2.99,0.06,-0.13,0.55,-1.91,0.0,1.5,67.53,68.64,71.36,72.46,0.0,-0.0,0.0,1.0,0.0,0.0,0.0
2023/10/01 18:16:03,142,0.01,-0.06,-0.0,0.0,0.0,0.0,-0.0,-0.0,-2.99,0.06,-0.13,0.55,-1.91,0.0,1.5,67.53,68.64,71.36,72.46,0.0,-0.0,0.0,1.0,0.0,0.0,0.0
2023/10/01 18:16:03,143,0.01,-0.06,-0.0,0.0,0.0,0.0,-0.0,-0.0,-2.99,0.06,-0.13,0.55,-1.91,0.0,1.5,67.53,68.64,71.36,72.46,0.0,-0.0,0.0,1.0,0.0,0.0,0.0
2023/10/01 18:16:03,144,0.01,-0.06,-0.0,0.0,0.0,0.0,-0.0,-0.0,-2.99,0.06,-0.13,0.55,-1.91,0.0,1.5,67.53,68.64,71.36,72.46,0.0,-0.0,0.0,1.0,0.0,0.0,0.0
2023/10/01 18:16:03,145,0.01,-0.06,-0.0,0.0,0.0,0.0,-0.0,-0.0,-2.99,0.06,-0.13,0.55,-1.91,0.0,1.5,67.53,68.64,71.36,72.46,0.0,-0.0,0.0,1.0,0.0,0.0,0.0
2023/10/01 18:16:03,146,0.01,-0.06,-0.0,0.0,0.0,0.0,-0.0,-0.0,-2.99,0.06,-0.13,0.55,-1.91,0.0,1.5,67.54,68.64,71.36,72.46,0.0,-0.0,0.0,1.0,0.0,0.0,0.0
2023/10/01 18:16:03,147,0.01,-0.06,-0.0,0.0,0.0,0.0,-0.0,-0.0,-2.99,0.06,-0.13,0.55,-1.91,0.0,1.5,67.54,68.64,71.36,72.46,0.0,-0.0,0.0,1.0,0.0,0.0,0.0
2023/10/01 18:16:03,148,0.01,-0.06,-0.0,0.0,0.0,0.0,-0.0,-0.0,-2.99,0.06,-0.13,0.55,-1.91,0.0,1.5,67.54,68.64,71.36,72.46,0.0,-0.0,0.0,1.0,0.0,0.0,0.0
2023/10/01 18:16:03,149,0.01,-0.06,-0.0,0.0,0.0,0.0,-0.0,-0.0,-2.99,0.06,-0.13,0.55,-1.91,0.0,1.5,67.54,68.64,71.36,72.46,0.0,-0.0,0.0,1.0,0.0,0.0,0.0
2023/10/01 18:16:03,150,0.01,-0.06,-0.0,0.0,0.0,0.0,-0.0,-0.0,-2.99,0.06,-0.13,0.55,-1.91,0.0,1.5,67.54,68.64,71.36,72.46,0.0,-0.0,0.0,1.0,0.0,0.0,0.0
2023/10/01 18:16:03,151,0.01,-0.06,-0.0,0.0,0.0,0.0,-0.0,-0.0,-2.99,0.06,-0.13,0.55,-1.91,0.0,1.5,67.54,68.64,71.36,72.46,0.0,-0.0,0.0,1.0,0.0,0.0,0.0
2023/10/01 18:16:03,152,0.01,-0.06,-0.0,0.0,0.0,0.0,-0.0,-0.0,-2.99,0.06,-0.13,0.55,-1.91,0.0,1.5,67.54,68.64,71.36,72.46,0.0,-0.0,0.0,1.0,0.0,0.0,0.0
2023/10/01 18:16:03,153,0.01,-0.06,-0.0,0.0,0.0,0.0,-0.0,-0.0,-2.99,0.06,-0.13,0.55,-1.91,0.0,1.5,67.54,68.64,71.36,72.46,0.0,-0.0,0.0,1.0,0.0,0.0,0.0
2023/10/01 18:16:03,154,0.01,-0.06,-0.0,0.0,0.0,0.0,-0.0,-0.0,-2.99,0.06,-0.13,0.55,-1.91,0.0,1.5,67.54,68.64,71.36,72.46,0.0,-0.0,0.0,1.0,0.0,0.0,0.0
2023/10/01 18:16:03,155,0.01,-0.06,-0.0,0.0,0.0,0.0,-0.0,-0.0,-2.99,0.06,-0.13,0.55,-1.91,0.0,1.5,67.54,68.64,71.36,72.46,0.0,-0.0,0.0,1.0,0.0,0.0,0.0
2023/10/01 18:16:03,156,0.01,-0.06,-0.0,0.0,0.0,0.0,-0.0,-0.0,-2.99,0.06,-0.13,0.55,-1.91,0.0,1.5,67.54,68.64,71.36,72.46,0.0,-0.0,0.0,1.0,0.0,0.0,0.0
2023/10/01 18:16:03,157,0.01,-0.06,-0.0,0.0,0.0,0.0,-0.0,-0.0,-2.99,0.06,-0.13,0.55,-1.91,0.0,1.5,67.54,68.64,71.36,72.46,0.0,-0.0,0.0,1.0,0.0,0.0,0.0
2023/10/01 18:16:03,158,0.01,-0.06,-0.0,0.0,0.0,0.0,-0.0,-0.0,-2.99,0.06,-0.13,0.55,-1.91,0.0,1.5,67.54,68.64,71.36,72.46,0.0,-0.0,0.0,1.0,0.0,0.0,0.0
2023/10/01 18:16:04,159,0.01,-0.06,-0.0,0.0,0.0,0.0,-0.0,-0.0,-2.99,0.06,-0.13,0.55,-1.91,0.0,1.5,67.54,68.64,71.36,72.46,0.0,-0.0,0.0,1.0,0.0,0.0,0.0
2023/10/01 18:16:04,160,0.01,-0.06,-0.0,0.0,0.0,0.0,-0.0,-0.0,-2.99,0.06,-0.13,0.55,-1.91,0.0,1.5,67.54,68.64,71.36,72.46,0.0,-0.0,0.0,1.0,0.0,0.0,0.0
2023/10/01 18:16:04,161,0.01,-0.06,-0.0,0.0,0.0,0.0,-0.0,-0.0,-2.99,0.06,-0.13,0.55,-1.91,0.0,1.5,67.54,68.64,71.36,72.46,0.0,-0.0,0.0,1.0,0.0,0.0,0.0
2023/10/01 18:16:04,162,0.01,-0.06,-0.0,0.0,0.0,0.0,-0.0,-0.0,-2.99,0.06,-0.13,0.55,-1.91,0.0,1.5,67.54,68.64,71.36,72.46,0.0,-0.0,0.0,1.0,0.0,0.0,0.0
2023/10/01 18:16:04,163,0.01,-0.06,-0.0,0.0,0.0,0.0,-0.0,-0.0,-2.99,0.06,-0.13,0.55,-1.91,0.0,1.5,67.54,68.64,71.36,72.46,0.0,-0.0,0.0,1.0,0.0,0.0,0.0
2023/10/01 18:16:04,164,0.01,-0.06,-0.0,0.0,0.0,0.0,-0.0,-0.0,-2.99,0.06,-0.13,0.55,-1.91,0.0,1.5,67.54,68.64,71.36,72.46,0.0,-0.0,0.0,1.0,0.0,0.0,0.0
2023/10/01 18:16:04,165,0.01,-0.06,-0.0,0.0,0.0,0.0,-0.0,-0.0,-2.99,0.06,-0.13,0.55,-1.91,0.0,1.5,67.54,68.64,71.36,72.46,0.0,-0.0,0.0,1.0,0.0,0.0,0.0
2023/10/01 18:16:04,166,0.01,-0.06,-0.0,0.0,0.0,0.0,-0.0,-0.0,-2.99,0.06,-0.13,0.55,-1.91,0.0,1.5,67.54,68.64,71.36,72.46,0.0,-0.0,0.0,1.0,0.0,0.0,0.0
2023/10/01 18:16:04,167,0.01,-0.06,-0.0,0.0,0.0,0.0,-0.0,-0.0,-2.99,0.06,-0.13,0.55,-1.91,0.0,1.5,67.54,68.64,71.36,72.46,0.0,-0.0,0.0,1.0,0.0,0.0,0.0
2023/10/01 18:16:04,168,0.01,-0.06,-0.0,0.0,0.0,0.0,-0.0,-0.0,-2.99,0.06,-0.13,0.55,-1.91,0.0,1.5,67.54,68.64,71.36,72.46,0.0,-0.0,0.0,1.0,0.0,0.0,0.0
2023/10/01 18:16:04,169,0.01,-0.06,-0.0,0.0,0.0,0.0,-0.0,-0.0,-2.99,0.06,-0.13,0.55,-1.91,0.0,1.5,67.54,68.64,71.36,72.46,0.0,-0.0,0.0,1.0,0.0,0.0,0.0
2023/10/01 18:16:04,170,0.01,-0.06,-0.0,0.0,0.0,0.0,-0.0,-0.0,-2.99,0.06,-0.13,0.55,-1.91,0.0,1.5,67.54,68.64,71.36,72.46,0.0,-0.0,0.0,1.0,0.0,0.0,0.0
2023/10/01 18:16:04,171,0.01,-0.06,-0.0,0.0,0.0,0.0,-0.0,-0.0,-2.99,0.06,-0.13,0.55,-1.91,0.0,1.5,67.54,68.64,71.36,72.46,0.0,-0.0,0.0,1.0,0.0,0.0,0.0
2023/10/01 18:16:04,172,0.01,-0.06,-0.0,0.0,0.0,0.0,-0.0,-0.0,-2.99,0.06,-0.13,0.55,-1.91,0.0,1.5,67.54,68.64,71.36,72.46,0.0,-0.0,0.0,1.0,0.0,0.0,0.0
2023/10/01 18:16:04,173,0.01,-0.06,-0.0,0.0,0.0,0.0,-0.0,-0.0,-2.99,0.06,-0.13,0.55,-1.91,0.0,1.5,67.54,68.65,71.36,72.46,0.0,-0.0,0.0,1.0,0.0,0.0,0.0
2023/10/01 18:16:04,174,0.01,-0.06,-0.0,0.0,0.0,0.0,-0.0,-0.0,-2.99,0.06,-0.13,0.55,-1.91,0.0,1.5,67.54,68.65,71.36,72.46,0.0,-0.0,0.0,1.0,0.0,0.0,0.0
2023/10/01 18:16:04,175,0.01,-0.06,-0.0,0.0,0.0,0.0,-0.0,-0.0,-2.99,0.06,-0.13,0.55,-1.91,0.0,1.5,67.54,68.65,71.36,72.46,0.0,-0.0,0.0,1.0,0.0,0.0,0.0
2023/10/01 18:16:04,176,0.01,-0.06,-0.0,0.0,0.0,0.0,-0.0,-0.0,-2.99,0.06,-0.13,0.55,-1.91,0.0,1.5,67.54,68.65,71.36,72.46,0.0,-0.0,0.0,1.0,0.0,0.0,0.0
2023/10/01 18:16:04,177,0.01,-0.06,-0.0,0.0,0.0,0.0,-0.0,-0.0,-2.99,0.06,-0.13,0.55,-1.91,0.0,1.5,67.54,68.65,71.36,72.46,0.0,-0.0,0.0,1.0,0.0,0.0,0.0
2023/10/01 18:16:04,178,0.01,-0.06,-0.0,0.0,0.0,0.0,-0.0,-0.0,-2.99,0.06,-0.13,0.55,-1.91,0.0,1.5,67.54,68.65,71.35,72.46,0.0,-0.0,0.0,1.0,0.0,0.0,0.0
2023/10/01 18:16:04,179,0.01,-0.06,-0.0,0.0,0.0,0.0,-0.0,-0.0,-2.99,0.06,-0.13,0.55,-1.91,0.0,1.5,67.54,68.65,71.35,72.46,0.0,-0.0,0.0,1.0,0.0,0.0,0.0
2023/10/01 18:16:04,180,0.01,-0.06,-0.0,0.0,0.0,0.0,-0.0,-0.0,-2.99,0.06,-0.13,0.55,-1.91,0.0,1.5,67.54,68.65,71.35,72.46,0.0,-0.0,0.0,1.0,0.0,0.0,0.0
2023/10/01 18:16:04,181,0.01,-0.06,-0.0,0.0,0.0,0.0,-0.0,-0.0,-2.99,0.06,-0.13,0.55,-1.91,0.0,1.5,67.54,68.65,71.35,72.46,0.0,-0.0,0.0,1.0,0.0,0.0,0.0
2023/10/01 18:16:04,182,0.01,-0.06,-0.0,0.0,0.0,0.0,-0.0,-0.0,-2.99,0.06,-0.13,0.55,-1.91,0.0,1.5,67.54,68.65,71.35,72.46,0.0,-0.0,0.0,1.0,0.0,0.0,0.0
2023/10/01 18:16:04,183,0.01,-0.06,-0.0,0.0,0.0,0.0,-0.0,-0.0,-2.99,0.06,-0.13,0.55,-1.91,0.0,1.5,67.54,68.65,71.35,72.46,0.0,-0.0,0.0,1.0,0.0,0.0,0.0
2023/10/01 18:16:04,184,0.01,-0.06,-0.0,0.0,0.0,0.0,-0.0,-0.0,-2.99,0.06,-0.13,0.55,-1.91,0.0,1.5,67.54,68.65,71.35,72.46,0.0,-0.0,0.0,1.0,0.0,0.0,0.0
2023/10/01 18:16:04,185,0.01,-0.06,-0.0,0.0,0.0,0.0,-0.0,-0.0,-2.99,0.06,-0.13,0.55,-1.91,0.0,1.5,67.54,68.65,71.35,72.46,0.0,-0.0,0.0,1.0,0.0,0.0,0.0
2023/10/01 18:16:04,186,0.01,-0.06,-0.0,0.0,0.0,0.0,-0.0,-0.0,-2.99,0.06,-0.13,0.55,-1.91,0.0,1.5,67.54,68.65,71.35,72.46,0.0,-0.0,0.0,1.0,0.0,0.0,0.0
2023/10/01 18:16:04,187,0.01,-0.06,-0.0,0.0,0.0,0.0,-0.0,-0.0,-2.99,0.06,-0.13,0.55,-1.91,0.0,1.5,67.54,68.65,71.35,72.46,0.0,-0.0,0.0,1.0,0.0,0.0,0.0
2023/10/01 18:16:04,188,0.01,-0.06,-0.0,0.0,0.0,0.0,-0.0,-0.0,-2.99,0.06,-0.13,0.55,-1.91,0.0,1.5,67.54,68.65,71.35,72.46,0.0,-0.0,0.0,1.0,0.0,0.0,0.0
2023/10/01 18:16:04,189,0.01,-0.06,-0.0,0.0,0.0,0.0,-0.0,-0.0,-2.99,0.06,-0.13,0.55,-1.91,0.0,1.5,67.54,68.65,71.35,72.46,0.0,-0.0,0.0,1.0,0.0,0.0,0.0
2023/10/01 18:16:04,190,0.01,-0.06,-0.0,0.0,0.0,0.0,-0.0,-0.0,-2.99,0.06,-0.13,0.55,-1.91,0.0,1.5,67.54,68.65,71.35,72.46,0.0,-0.0,0.0,1.0,0.0,0.0,0.0
2023/10/01 18:16:04,191,0.01,-0.06,-0.0,0.0,0.0,0.0,-0.0,-0.0,-2.99,0.06,-0.13,0.55,-1.91,0.0,1.5,67.54,68.65,71.35,72.46,0.0,-0.0,0.0,1.0,0.0,0.0,0.0
2023/10/01 18:16:04,192,0.01,-0.06,-0.0,0.0,0.0,0.0,-0.0,-0.0,-2.99,0.06,-0.13,0.55,-1.91,0.0,1.5,67.54,68.65,71.35,72.46,0.0,-0.0,0.0,1.0,0.0,0.0,0.0
2023/10/01 18:16:04,193,0.01,-0.06,-0.0,0.0,0.0,0.0,-0.0,-0.0,-2.99,0.06,-0.13,0.55,-1.91,0.0,1.5,67.54,68.65,71.35,72.46,0.0,-0.0,0.0,1.0,0.0,0.0,0.0
2023/10/01 18:16:04,194,0.01,-0.06,-0.0,0.0,0.0,0.0,-0.0,-0.0,-2.99,0.06,-0.13,0.55,-1.91,0.0,1.5,67.54,68.65,71.35,72.46,0.0,-0.0,0.0,1.0,0.0,0.0,0.0
2023/10/01 18:16:04,195,0.01,-0.06,-0.0,0.0,0.0,0.0,-0.0,-0.0,-2.99,0.06,-0.13,0.55,-1.91,0.0,1.5,67.54,68.65,71.35,72.46,0.0,-0.0,0.0,1.0,0.0,0.0,0.0
2023/10/01 18:16:04,196,0.01,-0.06,-0.0,0.0,0.0,0.0,-0.0,-0.0,-2.99,0.06,-0.13,0.55,-1.91,0.0,1.5,67.54,68.65,71.35,72.46,0.0,-0.0,0.0,1.0,0.0,0.0,0.0
2023/10/01 18:16:04,197,0.01,-0.06,-0.0,0.0,0.0,0.0,-0.0,-0.0,-2.99,0.06,-0.13,0.55,-1.91,0.0,1.5,67.54,68.65,71.35,72.46,0.0,-0.0,0.0,1.0,0.0,0.0,0.0
2023/10/01 18:16:04,198,0.01,-0.06,-0.0,0.0,0.0,0.0,-0.0,-0.0,-2.99,0.06,-0.13,0.55,-1.91,0.0,1.5,67.54,68.65,71.35,72.46,0.0,-0.0,0.0,1.0,0.0,0.0,0.0
2023/10/01 18:16:04,199,0.01,-0.06,-0.0,0.0,0.0,0.0,-0.0,-0.0,-2.99,0.06,-0.13,0.55,-1.91,0.0,1.5,67.54,68.65,71.35,72.46,0.0,-0.0,0.0,1.0,0.0,0.0,0.0
2023/10/01 18:16:04,200,0.01,-0.06,-0.0,0.0,0.0,0.0,-0.0,-0.0,-2.99,0.06,-0.13,0.55,-1.9,0.0,1.5,67.54,68.65,71.35,72.46,0.0,-0.0,0.0,1.0,0.0,0.0,0.0
2023/10/01 18:16:04,201,0.01,-0.06,-0.0,0.0,0.0,0.0,-0.0,-0.0,-2.99,0.06,-0.13,0.55,-1.9,0.0,1.5,67.54,68.65,71.35,72.46,0.0,-0.0,0.0,1.0,0.0,0.0,0.0
2023/10/01 18:16:04,202,0.01,-0.06,-0.0,0.0,0.0,0.0,-0.0,-0.0,-2.99,0.06,-0.13,0.55,-1.9,0.0,1.5,67.54,68.65,71.35,72.46,0.0,-0.0,0.0,1.0,0.0,0.0,0.0
2023/10/01 18:16:04,203,0.01,-0.06,-0.0,0.0,0.0,0.0,-0.0,-0.0,-2.99,0.06,-0.13,0.55,-1.9,0.0,1.5,67.54,68.65,71.35,72.46,0.0,-0.0,0.0,1.0,0.0,0.0,0.0
2023/10/01 18:16:04,204,0.01,-0.06,-0.0,0.0,0.0,0.0,-0.0,-0.0,-2.99,0.06,-0.13,0.55,-1.9,0.0,1.5,67.54,68.65,71.35,72.46,0.0,-0.0,0.0,1.0,0.0,0.0,0.0
2023/10/01 18:16:04,205,0.01,-0.06,-0.0,0.0,0.0,0.0,-0.0,-0.0,-2.99,0.06,-0.13,0.55,-1.9,0.0,1.5,67.54,68.65,71.35,72.46,0.0,-0.0,0.0,1.0,0.0,0.0,0.0
2023/10/01 18:16:04,206,0.01,-0.06,-0.0,0.0,0.0,0.0,-0.0,-0.0,-2.99,0.06,-0.13,0.55,-1.9,0.0,1.5,67.54,68.65,71.35,72.46,0.0,-0.0,0.0,1.0,0.0,0.0,0.0
2023/10/01 18:16:04,207,0.01,-0.06,-0.0,0.0,0.0,0.0,-0.0,-0.0,-2.99,0.06,-0.13,0.55,-1.9,0.0,1.5,67.54,68.65,71.35,72.46,0.0,-0.0,0.0,1.0,0.0,0.0,0.0
2023/10/01 18:16:04,208,0.01,-0.06,-0.0,0.0,0.0,0.0,-0.0,-0.0,-2.99,0.06,-0.13,0.55,-1.9,0.0,1.5,67.54,68.65,71.35,72.46,0.0,-0.0,0.0,1.0,0.0,0.0,0.0
2023/10/01 18:16:04,209,0.01,-0.06,-0.0,0.0,0.0,0.0,-0.0,-0.0,-2.99,0.06,-0.13,0.55,-1.9,0.0,1.5,67.54,68.65,71.35,72.46,0.0,-0.0,0.0,1.0,0.0,0.0,0.0
2023/10/01 18:16:04,210,0.01,-0.06,-0.0,0.0,0.0,0.0,-0.0,-0.0,-2.99,0.06,-0.13,0.55,-1.9,0.0,1.5,67.54,68.65,71.35,72.46,0.0,-0.0,0.0,1.0,0.0,0.0,0.0
2023/10/01 18:16:04,211,0.01,-0.06,-0.0,0.0,0.0,0.0,-0.0,-0.0,-2.99,0.06,-0.13,0.55,-1.9,0.0,1.5,67.54,68.65,71.35,72.46,0.0,-0.0,0.0,1.0,0.0,0.0,0.0
2023/10/01 18:16:04,212,0.01,-0.06,-0.0,0.0,0.0,0.0,-0.0,-0.0,-2.99,0.06,-0.13,0.55,-1.9,0.0,1.5,67.54,68.65,71.35,72.46,0.0,-0.0,0.0,1.0,0.0,0.0,0.0
2023/10/01 18:16:04,213,0.01,-0.06,-0.0,-0.0,0.0,0.0,-0.0,-0.0,-2.99,0.06,-0.13,0.55,-1.9,0.0,1.5,67.54,68.65,71.35,72.46,-0.0,-0.0,0.0,1.0,0.0,0.0,0.0
2023/10/01 18:16:04,214,0.01,-0.06,-0.0,-0.0,0.0,0.0,-0.0,-0.0,-2.99,0.06,-0.13,0.55,-1.9,0.0,1.5,67.55,68.65,71.35,72.45,-0.0,0.0,0.0,1.0,0.0,0.0,0.0
2023/10/01 18:16:05,215,0.01,-0.06,-0.0,-0.0,0.0,0.0,-0.0,-0.0,-2.99,0.06,-0.13,0.55,-1.9,0.0,1.5,67.55,68.65,71.35,72.45,-0.01,0.0,0.0,1.0,0.0,0.0,0.0
2023/10/01 18:16:05,216,0.01,-0.06,-0.0,0.0,0.0,0.0,-0.0,-0.0,-2.99,0.06,-0.13,0.55,-1.9,-0.01,1.5,67.56,68.64,71.34,72.46,-0.02,-0.0,0.0,1.0,0.0,0.0,0.0
2023/10/01 18:16:05,217,0.01,-0.06,-0.0,0.0,0.01,0.01,-0.0,-0.0,-2.99,0.06,-0.13,0.56,-1.83,-0.02,1.5,67.63,68.7,71.25,72.41,-0.02,-0.0,0.0,1.0,0.0,0.0,0.0
2023/10/01 18:16:05,218,0.01,-0.06,-0.0,0.0,0.03,0.01,-0.0,-0.0,-2.99,0.06,-0.13,0.56,-1.66,-0.03,1.5,67.81,68.86,71.07,72.25,-0.03,-0.0,0.0,1.0,0.0,0.0,0.0
2023/10/01 18:16:05,219,0.01,-0.06,-0.0,0.0,0.07,0.01,-0.01,-0.0,-2.99,0.06,-0.12,0.56,-1.39,-0.05,1.5,68.1,69.13,70.78,71.99,-0.03,-0.0,0.0,1.0,0.0,0.0,0.0
2023/10/01 18:16:05,220,0.01,-0.05,0.0,0.0,0.11,0.02,-0.01,-0.0,-2.99,0.06,-0.12,0.56,-1.02,-0.02,1.5,68.45,69.52,70.43,71.6,-0.03,-0.0,0.01,1.0,0.0,0.0,0.0
2023/10/01 18:16:05,221,0.01,-0.05,0.0,0.0,0.16,0.01,-0.01,-0.0,-2.99,0.06,-0.12,0.56,-0.61,-0.02,1.5,68.86,69.93,70.03,71.19,-0.04,-0.0,0.01,1.0,0.0,0.0,0.0
2023/10/01 18:16:05,222,0.01,-0.05,0.0,-0.02,0.18,-0.0,-0.01,-0.0,-2.99,0.06,-0.12,0.44,-0.34,-0.03,1.5,69.26,70.07,69.87,70.8,-0.04,-0.0,0.01,1.0,0.0,0.0,0.0
2023/10/01 18:16:05,223,0.01,-0.05,0.0,-0.04,0.19,-0.01,-0.01,-0.0,-2.99,0.06,-0.12,0.27,-0.14,0.03,1.5,69.56,70.16,69.91,70.37,-0.05,-0.0,0.02,1.0,0.0,0.0,0.0
2023/10/01 18:16:05,224,0.01,-0.04,-0.0,-0.05,0.2,-0.02,-0.01,-0.0,-2.99,0.06,-0.12,0.1,0.04,0.05,1.5,69.9,70.19,69.91,70.01,-0.05,-0.0,0.02,1.0,0.0,0.0,0.0
2023/10/01 18:16:05,225,0.01,-0.04,-0.0,-0.07,0.21,-0.02,-0.01,-0.0,-2.99,0.06,-0.12,-0.03,0.21,0.05,1.5,70.18,70.23,69.87,69.71,-0.06,-0.0,0.02,1.0,0.0,0.0,0.0
2023/10/01 18:16:05,226,0.01,-0.04,-0.0,-0.04,0.2,-0.01,-0.01,-0.0,-2.99,0.06,-0.12,0.14,0.26,0.04,1.5,70.08,70.44,69.64,69.84,-0.06,-0.0,0.03,1.0,0.0,0.0,0.0
2023/10/01 18:16:05,227,0.01,-0.03,-0.0,-0.06,0.19,-0.02,-0.01,-0.0,-2.99,0.06,-0.12,-0.07,0.28,0.05,1.5,70.3,70.25,69.84,69.6,-0.07,-0.0,0.03,1.0,0.0,0.0,0.0
2023/10/01 18:16:05,228,0.01,-0.03,-0.0,-0.02,0.17,-0.01,-0.01,-0.0,-2.98,0.06,-0.12,0.21,0.28,0.03,1.5,70.04,70.51,69.55,69.9,-0.07,-0.01,0.04,1.0,0.0,0.0,0.0
2023/10/01 18:16:05,229,0.01,-0.03,-0.0,-0.06,0.16,-0.01,-0.01,-0.0,-2.98,0.06,-0.12,-0.15,0.27,0.04,1.5,70.38,70.16,69.93,69.53,-0.08,-0.01,0.04,1.0,0.0,0.0,0.0
2023/10/01 18:16:05,230,0.01,-0.03,-0.0,0.0,0.15,-0.01,-0.02,-0.0,-2.98,0.06,-0.11,0.32,0.26,0.02,1.5,69.92,70.6,69.45,70.04,-0.08,-0.01,0.04,1.0,0.0,0.0,0.0
2023/10/01 18:16:05,231,0.0,-0.02,-0.0,-0.08,0.14,-0.01,-0.02,-0.0,-2.98,0.06,-0.11,-0.28,0.25,0.04,1.5,70.48,70.01,70.07,69.43,-0.09,-0.01,0.05,1.0,0.0,0.0,0.0
2023/10/01 18:16:05,232,0.0,-0.02,-0.0,-0.0,0.12,-0.01,-0.02,-0.0,-2.98,0.06,-0.11,0.22,0.23,0.02,1.5,69.98,70.47,69.57,69.97,-0.09,-0.01,0.05,1.0,0.0,0.0,0.0
2023/10/01 18:16:05,233,0.0,-0.02,-0.0,-0.05,0.11,-0.01,-0.02,-0.0,-2.98,0.06,-0.11,-0.16,0.23,0.04,1.5,70.35,70.1,69.97,69.57,-0.09,-0.01,0.05,1.0,0.0,0.0,0.0
2023/10/01 18:16:05,234,0.0,-0.02,-0.0,0.02,0.1,-0.0,-0.02,-0.0,-2.98,0.06,-0.11,0.34,0.22,0.01,1.5,69.87,70.57,69.45,70.11,-0.09,-0.01,0.06,1.0,0.0,0.0,0.0
2023/10/01 18:16:05,235,0.0,-0.02,-0.0,-0.06,0.1,-0.01,-0.02,-0.0,-2.98,0.06,-0.11,-0.25,0.21,0.01,1.5,70.46,69.97,70.04,69.53,-0.1,-0.01,0.06,1.0,0.0,0.0,0.0
2023/10/01 18:16:05,236,0.0,-0.01,-0.0,0.01,0.09,-0.0,-0.02,-0.0,-2.98,0.06,-0.11,0.25,0.2,0.05,1.5,69.9,70.5,69.59,70.01,-0.1,-0.01,0.07,1.0,0.0,0.0,0.0
2023/10/01 18:16:05,237,0.0,-0.01,-0.0,-0.05,0.08,-0.01,-0.03,-0.0,-2.98,0.06,-0.1,-0.2,0.2,0.03,1.5,70.37,70.03,70.03,69.57,-0.1,-0.01,0.07,1.0,0.0,0.0,0.0
2023/10/01 18:16:05,238,0.0,-0.01,-0.0,0.03,0.07,-0.0,-0.03,-0.0,-2.98,0.06,-0.1,0.4,0.19,0.01,1.5,69.79,70.6,69.41,70.2,-0.1,-0.01,0.07,1.0,0.0,0.0,0.0
2023/10/01 18:16:05,239,0.0,-0.01,-0.0,-0.03,0.07,-0.01,-0.03,-0.0,-2.97,0.06,-0.1,-0.09,0.19,0.01,1.5,70.27,70.11,69.92,69.71,-0.1,-0.01,0.08,1.0,0.0,0.0,0.0
2023/10/01 18:16:05,240,0.0,-0.01,-0.0,0.01,0.06,-0.0,-0.03,-0.0,-2.97,0.06,-0.1,0.26,0.18,0.01,1.5,69.91,70.45,69.56,70.07,-0.1,-0.01,0.08,1.0,0.0,0.0,0.0
2023/10/01 18:16:05,241,0.0,-0.01,-0.0,-0.05,0.06,-0.01,-0.03,-0.0,-2.97,0.06,-0.1,-0.2,0.18,0.02,1.5,70.36,70.01,70.04,69.59,-0.1,-0.01,0.08,1.0,0.0,0.0,0.0
2023/10/01 18:16:05,242,0.0,-0.01,-0.0,0.04,0.05,-0.0,-0.03,-0.0,-2.97,0.06,-0.1,0.4,0.18,0.0,1.5,69.77,70.58,69.42,70.22,-0.1,-0.01,0.09,1.0,0.0,0.0,0.0
2023/10/01 18:16:05,243,0.0,-0.01,-0.0,-0.03,0.05,-0.01,-0.04,-0.0,-2.97,0.06,-0.09,-0.09,0.17,0.01,1.5,70.25,70.09,69.93,69.73,-0.1,-0.01,0.09,1.0,0.0,0.0,0.0
2023/10/01 18:16:05,244,0.0,-0.01,-0.0,0.02,0.05,-0.0,-0.04,-0.0,-2.97,0.06,-0.09,0.26,0.17,0.01,1.5,69.91,70.43,69.58,70.08,-0.1,-0.01,0.09,1.0,0.0,0.0,0.0
2023/10/01 18:16:05,245,0.0,-0.01,-0.0,-0.04,0.04,-0.01,-0.04,-0.0,-2.97,0.06,-0.09,-0.2,0.17,0.02,1.5,70.34,70.0,70.05,69.61,-0.1,-0.01,0.09,1.0,0.0,0.0,0.0
2023/10/01 18:16:05,246,0.0,-0.01,-0.0,0.04,0.04,0.0,-0.04,-0.01,-2.96,0.07,-0.09,0.39,0.16,-0.0,1.5,69.77,70.56,69.44,70.23,-0.1,-0.01,0.1,1.0,0.0,0.0,0.0
2023/10/01 18:16:05,247,0.0,-0.0,-0.0,-0.03,0.04,-0.01,-0.04,-0.01,-2.96,0.07,-0.09,-0.11,0.16,0.02,1.5,70.25,70.07,69.97,69.71,-0.1,-0.01,0.1,1.0,0.0,0.0,0.0
2023/10/01 18:16:05,248,0.0,-0.0,-0.0,0.02,0.03,0.0,-0.04,-0.01,-2.96,0.07,-0.09,0.29,0.16,0.0,1.5,69.87,70.44,69.56,70.13,-0.1,-0.01,0.1,1.0,0.0,0.0,0.0
2023/10/01 18:16:05,249,0.0,-0.0,-0.0,-0.05,0.03,-0.01,-0.05,-0.01,-2.96,0.07,-0.08,-0.23,0.16,0.02,1.5,70.37,69.95,70.09,69.59,-0.1,-0.01,0.11,1.0,0.0,0.0,0.0
2023/10/01 18:16:05,250,0.0,-0.0,-0.0,0.03,0.03,0.0,-0.05,-0.01,-2.96,0.07,-0.08,0.36,0.16,-0.0,1.5,69.8,70.52,69.48,70.21,-0.1,-0.01,0.11,1.0,0.0,0.0,0.0
2023/10/01 18:16:05,251,0.0,-0.0,-0.0,-0.03,0.03,-0.0,-0.05,-0.01,-2.96,0.07,-0.08,-0.14,0.16,0.02,1.5,70.28,70.03,70.0,69.68,-0.1,-0.01,0.11,1.0,0.0,0.0,0.0
2023/10/01 18:16:05,252,0.0,-0.0,-0.0,0.03,0.02,0.0,-0.05,-0.01,-2.95,0.07,-0.08,0.33,0.15,-0.0,1.5,69.82,70.48,69.52,70.18,-0.1,-0.01,0.11,1.0,0.0,0.0,0.0
2023/10/01 18:16:05,253,0.0,-0.0,-0.0,-0.05,0.02,-0.01,-0.05,-0.01,-2.95,0.07,-0.08,-0.27,0.15,0.02,1.5,70.41,69.9,70.14,69.55,-0.1,-0.01,0.12,1.0,0.0,0.0,0.0
2023/10/01 18:16:05,254,0.0,-0.0,-0.0,0.02,0.02,0.0,-0.05,-0.01,-2.95,0.07,-0.08,0.22,0.15,0.0,1.5,69.93,70.37,69.63,70.07,-0.1,-0.01,0.12,1.0,0.0,0.0,0.0
2023/10/01 18:16:05,255,0.0,-0.0,-0.0,-0.03,0.02,-0.0,-0.06,-0.01,-2.95,0.07,-0.07,-0.14,0.15,0.01,1.5,70.28,70.03,70.0,69.7,-0.1,-0.01,0.12,1.0,0.0,0.0,0.0
2023/10/01 18:16:05,256,0.0,-0.0,-0.0,0.03,0.02,0.0,-0.06,-0.01,-2.95,0.07,-0.07,0.33,0.15,-0.0,1.5,69.82,70.47,69.52,70.18,-0.1,-0.01,0.13,1.0,0.0,0.0,0.0
2023/10/01 18:16:05,257,-0.0,-0.0,-0.0,-0.05,0.02,-0.01,-0.06,-0.01,-2.94,0.07,-0.07,-0.27,0.15,0.02,1.5,70.4,69.89,70.14,69.56,-0.1,-0.01,0.13,1.0,0.0,0.0,0.0
2023/10/01 18:16:05,258,0.0,-0.0,-0.0,0.02,0.02,0.0,-0.06,-0.01,-2.94,0.07,-0.07,0.22,0.14,-0.0,1.5,69.92,70.37,69.63,70.08,-0.1,-0.01,0.13,1.0,0.0,0.0,0.0
2023/10/01 18:16:05,259,-0.0,-0.0,-0.0,-0.03,0.01,-0.0,-0.06,-0.01,-2.94,0.07,-0.07,-0.14,0.15,0.01,1.5,70.27,70.02,70.01,69.7,-0.1,-0.01,0.13,1.0,0.0,0.0,0.0
2023/10/01 18:16:05,260,0.0,-0.0,-0.0,0.04,0.01,0.0,-0.06,-0.01,-2.94,0.07,-0.07,0.33,0.14,-0.0,1.5,69.82,70.47,69.52,70.19,-0.1,-0.01,0.14,1.0,0.0,0.0,0.0
2023/10/01 18:16:05,261,-0.0,-0.0,-0.0,-0.05,0.01,-0.01,-0.07,-0.01,-2.94,0.07,-0.06,-0.27,0.15,0.02,1.5,70.4,69.89,70.14,69.57,-0.1,-0.01,0.14,1.0,0.0,0.0,0.0
2023/10/01 18:16:05,262,-0.0,-0.0,-0.0,0.02,0.01,0.0,-0.07,-0.01,-2.93,0.07,-0.06,0.23,0.14,-0.0,1.5,69.92,70.37,69.63,70.09,-0.09,-0.01,0.14,1.0,0.0,0.0,0.0
2023/10/01 18:16:05,263,-0.0,0.0,-0.0,-0.03,0.01,-0.0,-0.07,-0.01,-2.93,0.07,-0.06,-0.14,0.14,0.01,1.5,70.28,70.01,70.01,69.7,-0.09,-0.01,0.14,1.0,0.0,0.0,0.0
2023/10/01 18:16:05,264,0.0,0.0,-0.0,0.04,0.01,0.0,-0.07,-0.01,-2.93,0.07,-0.06,0.34,0.14,-0.01,1.5,69.81,70.47,69.52,70.2,-0.09,-0.01,0.14,1.0,0.0,0.0,0.0
2023/10/01 18:16:05,265,-0.0,0.0,-0.0,-0.04,0.01,-0.0,-0.07,-0.01,-2.93,0.07,-0.06,-0.27,0.14,0.02,1.5,70.39,69.89,70.14,69.57,-0.09,-0.01,0.15,1.0,0.0,0.0,0.0
2023/10/01 18:16:05,266,-0.0,0.0,-0.0,0.02,0.01,0.0,-0.07,-0.01,-2.92,0.07,-0.06,0.23,0.14,-0.0,1.5,69.92,70.36,69.63,70.09,-0.09,-0.01,0.15,1.0,0.0,0.0,0.0
2023/10/01 18:16:05,267,-0.0,0.0,-0.0,-0.03,0.01,-0.0,-0.07,-0.01,-2.92,0.07,-0.06,-0.14,0.14,0.01,1.5,70.27,70.01,70.01,69.7,-0.09,-0.01,0.15,1.0,0.0,0.0,0.0
2023/10/01 18:16:05,268,-0.0,0.0,-0.0,0.04,0.01,0.0,-0.08,-0.01,-2.92,0.07,-0.05,0.34,0.14,-0.01,1.5,69.81,70.47,69.52,70.2,-0.09,-0.01,0.15,1.0,0.0,0.0,0.0
2023/10/01 18:16:05,269,-0.0,0.0,-0.0,-0.04,0.01,-0.0,-0.08,-0.01,-2.92,0.07,-0.05,-0.27,0.14,0.02,1.5,70.39,69.89,70.14,69.58,-0.09,-0.01,0.16,1.0,0.0,0.0,0.0
2023/10/01 18:16:05,270,-0.0,0.0,-0.0,0.02,0.01,0.0,-0.08,-0.01,-2.91,0.07,-0.05,0.23,0.14,-0.0,1.5,69.91,70.36,69.63,70.09,-0.09,-0.01,0.16,1.0,0.0,0.0,0.0
2023/10/01 18:16:05,271,-0.0,0.0,-0.0,-0.03,0.01,-0.0,-0.08,-0.01,-2.91,0.07,-0.05,-0.15,0.14,0.01,1.5,70.28,70.01,70.02,69.7,-0.08,-0.01,0.16,1.0,0.0,0.0,0.0
2023/10/01 18:16:05,272,-0.0,0.0,-0.0,0.04,0.01,0.0,-0.08,-0.01,-2.91,0.07,-0.05,0.34,0.14,-0.01,1.5,69.81,70.47,69.52,70.21,-0.08,-0.01,0.16,1.0,0.0,0.0,0.0
2023/10/01 18:16:05,273,-0.0,0.0,-0.0,-0.04,0.01,-0.0,-0.08,-0.01,-2.91,0.07,-0.05,-0.26,0.14,0.01,1.5,70.39,69.89,70.14,69.58,-0.08,-0.01,0.16,1.0,0.0,0.0,0.0
2023/10/01 18:16:05,274,-0.0,0.0,-0.0,0.02,0.01,0.0,-0.08,-0.01,-2.9,0.07,-0.05,0.23,0.14,-0.0,1.5,69.91,70.36,69.63,70.09,-0.08,-0.01,0.17,1.0,0.0,0.0,0.0
2023/10/01 18:16:05,275,-0.0,0.0,-0.0,-0.03,0.01,-0.0,-0.09,-0.01,-2.9,0.07,-0.04,-0.15,0.14,0.01,1.5,70.27,70.01,70.02,69.7,-0.08,-0.01,0.17,1.0,0.0,0.0,0.0
2023/10/01 18:16:06,276,-0.0,0.0,-0.0,0.04,0.0,0.0,-0.09,-0.01,-2.9,0.07,-0.04,0.34,0.14,-0.01,1.5,69.81,70.47,69.52,70.21,-0.08,-0.01,0.17,1.0,0.0,0.0,0.0
2023/10/01 18:16:06,277,-0.0,0.0,-0.0,-0.04,0.01,-0.0,-0.09,-0.01,-2.89,0.07,-0.04,-0.26,0.14,0.01,1.5,70.39,69.89,70.14,69.58,-0.08,-0.01,0.17,1.0,0.0,0.0,0.0
2023/10/01 18:16:06,278,-0.0,0.0,-0.0,0.03,0.0,0.0,-0.09,-0.01,-2.89,0.07,-0.04,0.23,0.14,-0.0,1.5,69.91,70.36,69.63,70.1,-0.08,-0.01,0.17,1.0,0.0,0.0,0.0
2023/10/01 18:16:06,279,-0.0,0.0,-0.0,-0.03,0.0,-0.0,-0.09,-0.01,-2.89,0.07,-0.04,-0.14,0.14,0.01,1.5,70.27,70.0,70.02,69.71,-0.08,-0.01,0.18,1.0,0.0,0.0,0.0
2023/10/01 18:16:06,280,-0.0,0.0,-0.0,0.04,0.0,0.0,-0.09,-0.01,-2.89,0.07,-0.04,0.34,0.14,-0.01,1.5,69.81,70.46,69.52,70.21,-0.07,-0.01,0.18,1.0,0.0,0.0,0.0
2023/10/01 18:16:06,281,-0.0,0.0,-0.0,-0.04,0.0,-0.0,-0.09,-0.01,-2.88,0.07,-0.04,-0.26,0.14,0.01,1.5,70.39,69.89,70.14,69.58,-0.07,-0.01,0.18,1.0,0.0,0.0,0.0
2023/10/01 18:16:06,282,-0.0,0.0,-0.0,0.03,0.0,0.0,-0.09,-0.01,-2.88,0.07,-0.04,0.23,0.14,-0.0,1.5,69.91,70.36,69.63,70.1,-0.07,-0.01,0.18,1.0,0.0,0.0,0.0
2023/10/01 18:16:06,283,-0.0,0.0,-0.0,-0.03,0.0,-0.0,-0.1,-0.01,-2.88,0.07,-0.03,-0.14,0.14,0.01,1.5,70.27,70.0,70.02,69.71,-0.07,-0.01,0.18,1.0,0.0,0.0,0.0
2023/10/01 18:16:06,284,-0.0,0.0,-0.0,0.04,0.0,0.0,-0.1,-0.01,-2.87,0.07,-0.03,0.34,0.14,-0.01,1.5,69.81,70.46,69.52,70.21,-0.07,-0.01,0.19,1.0,0.0,0.0,0.0
2023/10/01 18:16:06,285,-0.0,0.0,-0.0,-0.04,0.0,-0.0,-0.1,-0.01,-2.87,0.07,-0.03,-0.26,0.14,0.01,1.5,70.39,69.89,70.14,69.58,-0.07,-0.01,0.19,1.0,0.0,0.0,0.0
2023/10/01 18:16:06,286,-0.0,0.0,-0.0,0.03,0.0,0.0,-0.1,-0.01,-2.87,0.07,-0.03,0.23,0.14,-0.01,1.5,69.91,70.36,69.63,70.1,-0.07,-0.01,0.19,1.0,0.0,0.0,0.0
2023/10/01 18:16:06,287,-0.0,0.0,-0.0,-0.02,0.0,-0.0,-0.1,-0.01,-2.87,0.07,-0.03,-0.14,0.14,0.01,1.5,70.27,70.0,70.01,69.71,-0.07,-0.01,0.19,1.0,0.0,0.0,0.0
2023/10/01 18:16:06,288,-0.0,0.0,-0.0,0.04,0.0,0.0,-0.1,-0.01,-2.86,0.07,-0.03,0.34,0.13,-0.01,1.5,69.81,70.46,69.52,70.21,-0.07,-0.01,0.19,1.0,0.0,0.0,0.0
2023/10/01 18:16:06,289,-0.0,0.0,-0.0,-0.04,0.0,-0.0,-0.1,-0.01,-2.86,0.07,-0.03,-0.27,0.14,0.01,1.5,70.39,69.89,70.14,69.58,-0.06,-0.01,0.19,1.0,0.0,0.0,0.0
2023/10/01 18:16:06,290,-0.0,0.0,-0.0,0.03,0.0,0.0,-0.1,-0.01,-2.86,0.07,-0.03,0.23,0.14,-0.01,1.5,69.91,70.36,69.63,70.1,-0.06,-0.01,0.2,1.0,0.0,0.0,0.0
2023/10/01 18:16:06,291,-0.0,0.0,-0.0,-0.02,0.0,-0.0,-0.1,-0.01,-2.85,0.07,-0.03,-0.14,0.14,0.01,1.5,70.28,70.0,70.01,69.71,-0.06,-0.01,0.2,1.0,0.0,0.0,0.0
2023/10/01 18:16:06,292,-0.0,0.0,-0.0,0.04,0.0,0.0,-0.1,-0.01,-2.85,0.07,-0.03,0.34,0.13,-0.01,1.5,69.81,70.46,69.52,70.21,-0.06,-0.01,0.2,1.0,0.0,0.0,0.0
2023/10/01 18:16:06,293,-0.0,0.0,-0.0,-0.04,0.0,-0.0,-0.11,-0.01,-2.85,0.07,-0.02,-0.27,0.14,0.01,1.5,70.39,69.88,70.15,69.58,-0.06,-0.01,0.2,1.0,0.0,0.0,0.0
2023/10/01 18:16:06,294,-0.0,0.0,-0.0,0.02,0.0,0.0,-0.11,-0.01,-2.84,0.07,-0.02,0.22,0.14,-0.0,1.5,69.92,70.35,69.64,70.09,-0.06,-0.01,0.2,1.0,0.0,0.0,0.0
2023/10/01 18:16:06,295,-0.0,0.0,-0.0,-0.02,0.0,-0.0,-0.11,-0.01,-2.84,0.07,-0.02,-0.13,0.14,0.01,1.5,70.26,70.02,70.0,69.72,-0.06,-0.01,0.2,1.0,0.0,0.0,0.0
2023/10/01 18:16:06,296,-0.0,0.0,-0.0,0.04,0.0,0.0,-0.11,-0.01,-2.84,0.07,-0.02,0.32,0.13,-0.01,1.5,69.82,70.44,69.54,70.19,-0.06,-0.01,0.21,1.0,0.0,0.0,0.0
2023/10/01 18:16:06,297,-0.0,0.0,-0.0,-0.04,0.0,-0.0,-0.11,-0.01,-2.83,0.07,-0.02,-0.26,0.14,0.01,1.5,70.39,69.89,70.14,69.58,-0.06,-0.0,0.21,1.0,0.0,0.0,0.0
2023/10/01 18:16:06,298,-0.0,0.0,-0.0,0.03,0.0,0.0,-0.11,-0.01,-2.83,0.07,-0.02,0.25,0.14,-0.01,1.5,69.89,70.38,69.61,70.12,-0.05,-0.01,0.21,1.0,0.0,0.0,0.0
2023/10/01 18:16:06,299,-0.0,0.0,-0.0,-0.03,0.0,-0.0,-0.11,-0.01,-2.83,0.07,-0.02,-0.17,0.14,0.01,1.5,70.3,69.98,70.05,69.68,-0.05,-0.0,0.21,1.0,0.0,0.0,0.0
2023/10/01 18:16:06,300,-0.0,0.0,-0.0,0.05,0.0,0.0,-0.11,-0.01,-2.82,0.07,-0.02,0.38,0.13,-0.01,1.5,69.77,70.5,69.48,70.25,-0.05,-0.01,0.21,1.0,0.0,0.0,0.0
2023/10/01 18:16:06,301,-0.0,0.0,-0.0,-0.03,0.0,-0.0,-0.11,-0.01,-2.82,0.07,-0.02,-0.17,0.14,0.01,1.5,70.3,69.97,70.05,69.68,-0.05,-0.0,0.21,1.0,0.0,0.0,0.0
2023/10/01 18:16:06,302,-0.0,0.0,-0.0,0.04,0.0,0.0,-0.11,-0.01,-2.82,0.07,-0.02,0.37,0.13,-0.01,1.5,69.77,70.49,69.49,70.25,-0.05,-0.01,0.22,1.0,0.0,0.0,0.0
2023/10/01 18:16:06,303,-0.0,0.0,-0.0,-0.03,0.0,-0.0,-0.11,-0.01,-2.81,0.07,-0.02,-0.18,0.13,0.01,1.5,70.31,69.96,70.06,69.67,-0.05,-0.0,0.22,1.0,0.0,0.0,0.0
2023/10/01 18:16:06,304,0.0,0.0,-0.0,0.04,0.0,0.0,-0.12,-0.01,-2.81,0.07,-0.01,0.36,0.13,-0.01,1.5,69.78,70.48,69.5,70.24,-0.05,-0.01,0.22,1.0,0.0,0.0,0.0
2023/10/01 18:16:06,305,-0.0,0.0,-0.0,-0.04,0.0,-0.0,-0.12,-0.01,-2.81,0.07,-0.01,-0.2,0.13,0.01,1.5,70.32,69.94,70.08,69.66,-0.05,-0.0,0.22,1.0,0.0,0.0,0.0
2023/10/01 18:16:06,306,0.0,0.0,-0.0,0.04,0.0,0.0,-0.12,-0.01,-2.8,0.07,-0.01,0.34,0.13,-0.01,1.5,69.8,70.46,69.52,70.23,-0.05,-0.01,0.22,1.0,0.0,0.0,0.0
2023/10/01 18:16:06,307,-0.0,0.0,-0.0,-0.04,0.0,-0.0,-0.12,-0.01,-2.8,0.07,-0.01,-0.22,0.13,0.01,1.5,70.34,69.92,70.09,69.65,-0.05,-0.0,0.22,1.0,0.0,0.0,0.0
2023/10/01 18:16:06,308,0.0,0.0,-0.0,0.04,0.0,0.0,-0.12,-0.01,-2.79,0.07,-0.01,0.32,0.13,-0.0,1.5,69.81,70.45,69.54,70.2,-0.04,-0.01,0.22,1.0,0.0,0.0,0.0
2023/10/01 18:16:06,309,-0.0,0.0,-0.0,-0.04,0.0,-0.0,-0.12,-0.01,-2.79,0.07,-0.01,-0.23,0.13,0.01,1.5,70.35,69.91,70.11,69.63,-0.04,-0.0,0.23,1.0,0.0,0.0,0.0
2023/10/01 18:16:06,310,-0.0,0.0,-0.0,0.03,0.0,0.0,-0.12,-0.01,-2.79,0.07,-0.01,0.31,0.13,-0.01,1.5,69.82,70.43,69.55,70.2,-0.04,-0.01,0.23,1.0,0.0,0.0,0.0
2023/10/01 18:16:06,311,-0.0,0.0,-0.0,-0.04,0.0,-0.0,-0.12,-0.01,-2.78,0.07,-0.01,-0.23,0.13,0.01,1.5,70.35,69.91,70.1,69.63,-0.04,-0.0,0.23,1.0,0.0,0.0,0.0
2023/10/01 18:16:06,312,-0.0,0.0,-0.0,0.04,0.0,0.0,-0.12,-0.01,-2.78,0.07,-0.01,0.33,0.13,-0.01,1.5,69.81,70.45,69.52,70.21,-0.04,-0.0,0.23,1.0,0.0,0.0,0.0
2023/10/01 18:16:06,313,-0.0,0.0,-0.0,-0.04,0.0,-0.0,-0.12,-0.01,-2.78,0.07,-0.01,-0.21,0.14,0.01,1.5,70.34,69.94,70.08,69.65,-0.04,-0.0,0.23,1.0,0.0,0.0,0.0
2023/10/01 18:16:06,314,-0.0,0.0,-0.0,0.04,0.0,0.0,-0.12,-0.01,-2.77,0.07,-0.01,0.35,0.14,-0.01,1.5,69.8,70.47,69.5,70.23,-0.04,-0.0,0.23,1.0,0.0,0.0,0.0
2023/10/01 18:16:06,315,-0.0,0.0,-0.0,-0.03,0.0,-0.0,-0.12,-0.02,-2.77,0.08,-0.01,-0.19,0.14,0.01,1.5,70.32,69.96,70.05,69.66,-0.04,-0.0,0.23,1.0,0.0,0.0,0.0
2023/10/01 18:16:06,316,0.0,0.0,-0.0,0.04,0.0,0.01,-0.12,-0.02,-2.76,0.08,-0.01,0.37,0.14,-0.01,1.5,69.79,70.49,69.48,70.24,-0.04,-0.0,0.23,1.0,0.0,0.0,0.0
2023/10/01 18:16:06,317,-0.0,0.0,-0.0,-0.03,0.0,-0.0,-0.12,-0.02,-2.76,0.08,-0.01,-0.18,0.14,0.01,1.5,70.32,69.97,70.04,69.67,-0.04,-0.0,0.24,1.0,0.0,0.0,0.0
2023/10/01 18:16:06,318,0.0,0.0,-0.0,0.04,0.0,0.01,-0.12,-0.02,-2.76,0.08,-0.01,0.37,0.14,-0.01,1.5,69.79,70.49,69.48,70.24,-0.03,-0.0,0.24,1.0,0.0,0.0,0.0
2023/10/01 18:16:06,319,-0.0,0.0,-0.0,-0.04,0.0,-0.0,-0.12,-0.02,-2.75,0.08,-0.01,-0.19,0.14,0.01,1.5,70.32,69.96,70.05,69.66,-0.03,-0.0,0.24,1.0,0.0,0.0,0.0
2023/10/01 18:16:06,320,0.0,0.0,-0.0,0.04,0.0,0.01,-0.13,-0.02,-2.75,0.08,-0.0,0.36,0.14,-0.01,1.5,69.8,70.48,69.49,70.23,-0.03,-0.0,0.24,1.0,0.0,0.0,0.0
2023/10/01 18:16:06,321,-0.0,0.0,-0.0,-0.04,0.0,-0.0,-0.13,-0.02,-2.75,0.08,-0.0,-0.2,0.14,0.01,1.5,70.33,69.94,70.07,69.66,-0.03,-0.0,0.24,1.0,0.0,0.0,0.0
2023/10/01 18:16:06,322,0.0,0.0,-0.0,0.04,0.0,0.01,-0.13,-0.02,-2.74,0.08,-0.0,0.34,0.13,-0.01,1.5,69.81,70.46,69.51,70.22,-0.03,-0.0,0.24,1.0,0.0,0.0,0.0
2023/10/01 18:16:06,323,-0.0,0.0,-0.0,-0.04,0.0,-0.0,-0.13,-0.02,-2.74,0.08,-0.0,-0.22,0.13,0.01,1.5,70.34,69.93,70.09,69.64,-0.03,-0.0,0.24,1.0,0.0,0.0,0.0
2023/10/01 18:16:06,324,0.0,0.0,-0.0,0.03,0.0,0.01,-0.13,-0.02,-2.73,0.08,-0.0,0.33,0.13,-0.01,1.5,69.82,70.44,69.53,70.21,-0.03,-0.0,0.24,1.0,0.0,0.0,0.0
2023/10/01 18:16:06,325,-0.0,0.0,-0.0,-0.04,0.0,-0.0,-0.13,-0.02,-2.73,0.08,-0.0,-0.22,0.13,0.01,1.5,70.35,69.91,70.1,69.64,-0.03,-0.0,0.25,1.0,0.0,0.0,0.0
2023/10/01 18:16:06,326,0.0,0.0,-0.0,0.03,0.0,0.01,-0.13,-0.02,-2.73,0.08,-0.0,0.32,0.13,-0.01,1.5,69.82,70.44,69.53,70.21,-0.03,-0.0,0.25,1.0,0.0,0.0,0.0
2023/10/01 18:16:06,327,-0.0,0.0,-0.0,-0.04,0.0,-0.0,-0.13,-0.02,-2.72,0.08,-0.0,-0.22,0.13,0.0,1.5,70.35,69.91,70.1,69.64,-0.03,-0.0,0.25,1.0,0.0,0.0,0.0
2023/10/01 18:16:06,328,0.0,0.0,-0.0,0.04,0.0,0.01,-0.13,-0.02,-2.72,0.08,-0.0,0.33,0.13,-0.01,1.5,69.81,70.45,69.54,70.2,-0.03,-0.0,0.25,1.0,0.0,0.0,0.0
2023/10/01 18:16:06,329,-0.0,0.0,-0.0,-0.04,0.0,-0.0,-0.13,-0.02,-2.71,0.08,-0.0,-0.22,0.13,0.01,1.5,70.35,69.92,70.1,69.64,-0.02,-0.0,0.25,1.0,0.0,0.0,0.0
2023/10/01 18:16:06,330,-0.0,0.0,-0.0,0.04,0.0,0.01,-0.13,-0.02,-2.71,0.08,0.0,0.33,0.13,-0.02,1.5,69.81,70.44,69.53,70.22,-0.02,-0.0,0.25,1.0,0.0,0.0,0.0
2023/10/01 18:16:06,331,-0.0,0.0,-0.0,-0.04,0.0,-0.0,-0.13,-0.02,-2.71,0.08,0.0,-0.22,0.13,0.01,1.5,70.34,69.92,70.09,69.64,-0.02,-0.0,0.25,1.0,0.0,0.0,0.0
2023/10/01 18:16:06,332,-0.0,0.0,-0.0,0.04,0.0,0.01,-0.13,-0.02,-2.7,0.08,0.0,0.33,0.13,-0.02,1.5,69.81,70.45,69.52,70.22,-0.02,-0.0,0.25,1.0,0.0,0.0,0.0
2023/10/01 18:16:06,333,-0.0,0.0,-0.0,-0.04,0.0,-0.0,-0.13,-0.02,-2.7,0.08,0.0,-0.21,0.13,0.0,1.5,70.34,69.92,70.08,69.65,-0.02,-0.0,0.25,1.0,0.0,0.0,0.0
2023/10/01 18:16:07,334,-0.0,0.0,-0.0,0.04,0.0,0.01,-0.13,-0.02,-2.69,0.08,0.0,0.34,0.13,-0.02,1.5,69.81,70.45,69.52,70.22,-0.02,-0.0,0.25,1.0,0.0,0.0,0.0
2023/10/01 18:16:07,335,-0.0,0.0,-0.0,-0.04,0.0,-0.0,-0.13,-0.02,-2.69,0.08,0.0,-0.21,0.13,0.0,1.5,70.34,69.93,70.08,69.65,-0.02,-0.0,0.26,1.0,0.0,0.0,0.0
2023/10/01 18:16:07,336,0.0,0.0,-0.0,0.04,0.0,0.01,-0.13,-0.02,-2.68,0.08,0.0,0.34,0.13,-0.02,1.5,69.8,70.46,69.51,70.23,-0.02,-0.0,0.26,1.0,0.0,0.0,0.0
2023/10/01 18:16:07,337,-0.0,0.0,-0.0,-0.04,0.0,-0.0,-0.13,-0.02,-2.68,0.08,0.0,-0.2,0.13,0.0,1.5,70.33,69.94,70.07,69.66,-0.02,-0.0,0.26,1.0,0.0,0.0,0.0
2023/10/01 18:16:07,338,0.0,0.0,-0.0,0.04,0.0,0.01,-0.13,-0.02,-2.68,0.08,0.0,0.35,0.13,-0.01,1.5,69.79,70.48,69.51,70.23,-0.02,-0.0,0.26,1.0,0.0,0.0,0.0
2023/10/01 18:16:07,339,-0.0,0.0,-0.0,-0.04,0.0,-0.0,-0.13,-0.02,-2.67,0.08,0.0,-0.19,0.14,-0.01,1.5,70.34,69.93,70.05,69.68,-0.02,-0.0,0.26,1.0,0.0,0.0,0.0
2023/10/01 18:16:07,340,0.0,0.0,-0.0,0.04,0.0,0.01,-0.13,-0.02,-2.67,0.08,0.0,0.36,0.13,-0.01,1.5,69.79,70.48,69.49,70.24,-0.02,-0.0,0.26,1.0,0.0,0.0,0.0
2023/10/01 18:16:07,341,-0.0,0.0,-0.0,-0.03,0.0,-0.0,-0.13,-0.02,-2.66,0.08,0.0,-0.19,0.14,0.0,1.5,70.32,69.95,70.05,69.68,-0.02,-0.0,0.26,1.0,0.0,0.0,0.0
2023/10/01 18:16:07,342,0.0,0.0,-0.0,0.04,0.0,0.01,-0.13,-0.02,-2.66,0.08,0.0,0.37,0.13,0.0,1.5,69.76,70.51,69.5,70.23,-0.01,-0.0,0.26,1.0,0.0,0.0,0.0
2023/10/01 18:16:07,343,-0.0,0.0,-0.0,-0.03,0.0,-0.0,-0.13,-0.02,-2.66,0.08,0.0,-0.18,0.14,-0.02,1.5,70.33,69.95,70.02,69.7,-0.01,-0.0,0.26,1.0,0.0,0.0,0.0
2023/10/01 18:16:07,344,0.0,0.0,-0.0,0.04,0.0,0.01,-0.13,-0.02,-2.65,0.08,0.0,0.36,0.14,-0.02,1.5,69.8,70.48,69.49,70.24,-0.01,-0.0,0.26,1.0,0.0,0.0,0.0
2023/10/01 18:16:07,345,-0.0,0.0,-0.0,-0.04,0.0,-0.0,-0.13,-0.02,-2.65,0.08,0.0,-0.21,0.14,0.0,1.5,70.35,69.93,70.08,69.64,-0.01,-0.0,0.27,1.0,0.0,0.0,0.0
2023/10/01 18:16:07,346,0.0,0.0,-0.0,0.03,0.0,0.01,-0.13,-0.02,-2.64,0.08,0.0,0.32,0.14,-0.01,1.5,69.83,70.45,69.54,70.18,-0.01,-0.0,0.27,1.0,0.0,0.0,0.0
2023/10/01 18:16:07,347,-0.0,0.0,-0.0,-0.04,0.0,-0.0,-0.13,-0.02,-2.64,0.08,0.0,-0.25,0.14,-0.01,1.5,70.4,69.88,70.1,69.61,-0.01,-0.0,0.27,1.0,0.0,0.0,0.0
2023/10/01 18:16:07,348,-0.0,0.0,-0.0,0.03,0.0,0.0,-0.13,-0.02,-2.63,0.08,0.0,0.28,0.14,-0.01,1.5,69.87,70.41,69.57,70.14,-0.01,-0.0,0.27,1.0,0.0,0.0,0.0
2023/10/01 18:16:07,349,-0.0,0.0,-0.0,-0.04,0.0,-0.0,-0.14,-0.02,-2.63,0.08,0.01,-0.21,0.14,0.01,1.5,70.35,69.93,70.08,69.64,-0.01,-0.0,0.27,1.0,0.0,0.0,0.0
2023/10/01 18:16:07,350,0.0,0.0,-0.0,0.05,0.0,0.01,-0.14,-0.02,-2.63,0.08,0.01,0.4,0.13,-0.01,1.5,69.74,70.53,69.46,70.27,-0.01,-0.0,0.27,1.0,0.0,0.0,0.0
2023/10/01 18:16:07,351,-0.0,0.0,-0.0,-0.02,0.0,-0.0,-0.14,-0.02,-2.62,0.08,0.01,-0.08,0.13,0.0,1.5,70.22,70.05,69.95,69.78,-0.01,-0.0,0.27,1.0,0.0,0.0,0.0
2023/10/01 18:16:07,352,0.0,0.0,-0.0,0.02,0.0,0.0,-0.14,-0.02,-2.62,0.08,0.01,0.26,0.13,-0.01,1.5,69.89,70.38,69.6,70.13,-0.01,-0.0,0.27,1.0,0.0,0.0,0.0
2023/10/01 18:16:07,353,-0.0,0.0,-0.0,-0.03,0.0,-0.0,-0.14,-0.02,-2.61,0.08,0.01,-0.19,0.14,0.01,1.5,70.32,69.96,70.05,69.67,-0.01,-0.0,0.27,1.0,0.0,0.0,0.0
2023/10/01 18:16:07,354,0.0,0.0,-0.0,0.04,0.0,0.01,-0.14,-0.02,-2.61,0.08,0.01,0.39,0.13,-0.01,1.5,69.75,70.52,69.47,70.26,-0.01,-0.0,0.27,1.0,0.0,0.0,0.0
2023/10/01 18:16:07,355,-0.0,0.0,-0.0,-0.03,0.0,-0.0,-0.14,-0.02,-2.6,0.08,0.01,-0.13,0.14,-0.01,1.5,70.28,69.99,69.99,69.74,-0.01,-0.0,0.27,1.0,0.0,0.0,0.0
2023/10/01 18:16:07,356,0.0,0.0,-0.0,0.03,0.0,0.0,-0.14,-0.02,-2.6,0.08,0.01,0.32,0.13,-0.01,1.5,69.82,70.45,69.53,70.2,-0.0,-0.0,0.28,1.0,0.0,0.0,0.0
2023/10/01 18:16:07,357,-0.0,0.0,-0.0,-0.05,0.0,-0.0,-0.14,-0.02,-2.59,0.08,0.01,-0.27,0.14,0.01,1.5,70.41,69.87,70.14,69.58,-0.0,0.0,0.28,1.0,0.0,0.0,0.0
2023/10/01 18:16:07,358,-0.0,0.0,-0.0,0.02,0.0,0.0,-0.14,-0.02,-2.59,0.08,0.01,0.23,0.14,0.01,1.5,69.9,70.37,69.64,70.08,-0.0,-0.0,0.28,1.0,0.0,0.0,0.0
2023/10/01 18:16:07,359,-0.0,0.0,-0.0,-0.03,0.0,-0.0,-0.14,-0.02,-2.59,0.08,0.01,-0.15,0.14,-0.01,1.5,70.29,69.98,70.0,69.72,-0.0,-0.0,0.28,1.0,0.0,0.0,0.0
2023/10/01 18:16:07,360,0.0,0.0,-0.0,0.04,0.0,0.0,-0.14,-0.02,-2.58,0.08,0.01,0.34,0.13,-0.01,1.5,69.8,70.47,69.51,70.22,-0.0,-0.0,0.28,1.0,0.0,0.0,0.0
2023/10/01 18:16:07,361,-0.0,0.0,-0.0,-0.05,0.0,-0.0,-0.14,-0.02,-2.58,0.08,0.01,-0.27,0.14,0.01,1.5,70.4,69.87,70.14,69.59,-0.0,0.0,0.28,1.0,0.0,0.0,0.0
2023/10/01 18:16:07,362,-0.0,0.0,-0.0,0.02,-0.0,0.0,-0.14,-0.02,-2.57,0.08,0.01,0.21,0.13,0.01,1.5,69.91,70.35,69.66,70.08,-0.0,-0.0,0.28,1.0,0.0,0.0,0.0
2023/10/01 18:16:07,363,-0.0,0.0,-0.0,-0.02,0.0,-0.0,-0.14,-0.02,-2.57,0.08,0.01,-0.13,0.14,-0.0,1.5,70.27,70.0,69.99,69.74,0.0,-0.0,0.28,1.0,0.0,0.0,0.0
2023/10/01 18:16:07,364,-0.0,0.0,-0.0,0.04,-0.0,0.0,-0.14,-0.02,-2.56,0.08,0.01,0.32,0.13,-0.0,1.5,69.82,70.45,69.54,70.19,0.0,-0.0,0.28,1.0,0.0,0.0,0.0
2023/10/01 18:16:07,365,-0.0,0.0,-0.0,-0.04,0.0,-0.0,-0.14,-0.02,-2.56,0.08,0.01,-0.27,0.14,-0.0,1.5,70.41,69.87,70.13,69.6,0.0,0.0,0.28,1.0,0.0,0.0,0.0
2023/10/01 18:16:07,366,-0.0,0.0,-0.0,0.03,0.0,0.0,-0.14,-0.02,-2.55,0.08,0.01,0.24,0.14,-0.0,1.5,69.89,70.38,69.62,70.11,0.0,-0.0,0.28,1.0,0.0,0.0,0.0
2023/10/01 18:16:07,367,-0.0,0.0,-0.0,-0.03,0.0,-0.0,-0.14,-0.02,-2.55,0.08,0.01,-0.17,0.14,-0.01,1.5,70.31,69.97,70.02,69.7,0.0,0.0,0.28,1.0,0.0,0.0,0.0
2023/10/01 18:16:07,368,-0.0,0.0,-0.0,0.04,-0.0,0.0,-0.14,-0.02,-2.54,0.08,0.01,0.37,0.13,-0.01,1.5,69.77,70.5,69.49,70.24,0.0,-0.0,0.28,1.0,0.0,0.0,0.0
2023/10/01 18:16:07,369,-0.0,0.0,-0.0,-0.03,0.0,-0.0,-0.14,-0.02,-2.54,0.08,0.01,-0.19,0.14,0.01,1.5,70.32,69.95,70.07,69.66,0.0,0.0,0.28,1.0,0.0,0.0,0.0
2023/10/01 18:16:07,370,-0.0,0.0,-0.0,0.04,-0.0,0.0,-0.14,-0.02,-2.53,0.08,0.01,0.34,0.13,0.01,1.5,69.78,70.48,69.54,70.2,0.0,-0.0,0.29,1.0,0.0,0.0,0.0
2023/10/01 18:16:07,371,-0.0,0.0,-0.0,-0.04,-0.0,-0.0,-0.14,-0.02,-2.53,0.08,0.01,-0.23,0.13,-0.0,1.5,70.36,69.9,70.09,69.65,0.01,0.0,0.29,1.0,0.0,0.0,0.0
2023/10/01 18:16:07,372,-0.0,0.0,-0.0,0.03,-0.0,0.0,-0.14,-0.02,-2.53,0.08,0.01,0.31,0.13,-0.01,1.5,69.83,70.42,69.56,70.19,0.01,-0.0,0.29,1.0,0.0,0.0,0.0
2023/10/01 18:16:07,373,-0.0,0.0,-0.0,-0.04,-0.0,-0.0,-0.14,-0.02,-2.52,0.08,0.01,-0.24,0.13,0.01,1.5,70.36,69.9,70.12,69.61,0.01,0.0,0.29,1.0,0.0,0.0,0.0
2023/10/01 18:16:07,374,-0.0,0.0,-0.0,0.04,0.0,0.0,-0.14,-0.02,-2.52,0.08,0.01,0.31,0.13,-0.01,1.5,69.83,70.43,69.55,70.19,0.01,-0.0,0.29,1.0,0.0,0.0,0.0
2023/10/01 18:16:07,375,-0.0,0.0,-0.0,-0.04,0.0,-0.0,-0.14,-0.02,-2.51,0.08,0.01,-0.24,0.14,0.01,1.5,70.37,69.91,70.1,69.62,0.01,0.0,0.29,1.0,0.0,0.0,0.0
2023/10/01 18:16:07,376,-0.0,0.0,-0.0,0.04,0.0,0.0,-0.13,-0.02,-2.51,0.08,0.0,0.32,0.14,-0.0,1.5,69.83,70.46,69.53,70.18,0.01,-0.0,0.29,1.0,0.0,0.0,0.0
2023/10/01 18:16:07,377,-0.0,0.0,-0.0,-0.04,0.0,-0.0,-0.13,-0.02,-2.5,0.08,0.0,-0.23,0.15,0.01,1.5,70.37,69.93,70.08,69.62,0.01,0.0,0.29,1.0,0.0,0.0,0.0
2023/10/01 18:16:07,378,-0.0,0.0,-0.0,0.04,0.0,0.0,-0.13,-0.02,-2.5,0.08,0.0,0.33,0.15,-0.01,1.5,69.83,70.47,69.51,70.19,0.01,-0.0,0.29,1.0,0.0,0.0,0.0
2023/10/01 18:16:07,379,-0.0,0.0,-0.0,-0.04,0.0,-0.0,-0.13,-0.02,-2.49,0.08,0.0,-0.22,0.16,0.01,1.5,70.36,69.95,70.07,69.62,0.01,0.0,0.29,1.0,0.0,0.0,0.0
2023/10/01 18:16:07,380,-0.0,0.0,-0.0,0.04,0.0,0.0,-0.13,-0.02,-2.49,0.08,0.0,0.33,0.16,-0.01,1.5,69.83,70.48,69.5,70.19,0.01,-0.0,0.29,1.0,0.0,0.0,0.0
2023/10/01 18:16:07,381,-0.0,0.0,-0.0,-0.04,0.0,-0.0,-0.13,-0.02,-2.48,0.08,0.0,-0.22,0.16,-0.01,1.5,70.39,69.94,70.04,69.63,0.01,0.0,0.29,1.0,0.0,0.0,0.0
2023/10/01 18:16:07,382,-0.0,0.0,-0.0,0.04,0.0,0.0,-0.13,-0.02,-2.48,0.08,0.0,0.33,0.16,0.0,1.5,69.83,70.5,69.51,70.17,0.01,-0.0,0.29,1.0,0.0,0.0,0.0
2023/10/01 18:16:07,383,-0.0,0.0,-0.0,-0.04,0.0,-0.0,-0.13,-0.02,-2.47,0.08,0.0,-0.21,0.17,0.01,1.5,70.37,69.96,70.05,69.61,0.01,0.0,0.29,1.0,0.0,0.0,0.0
2023/10/01 18:16:07,384,-0.0,0.0,-0.0,0.04,0.0,0.0,-0.13,-0.02,-2.47,0.08,0.0,0.34,0.16,0.01,1.5,69.82,70.51,69.5,70.17,0.01,-0.0,0.29,1.0,0.0,0.0,0.0
2023/10/01 18:16:07,385,-0.0,0.0,-0.0,-0.04,0.0,-0.0,-0.13,-0.02,-2.46,0.08,0.0,-0.21,0.17,0.0,1.5,70.38,69.96,70.04,69.62,0.01,0.0,0.3,1.0,0.0,0.0,0.0
2023/10/01 18:16:07,386,-0.0,0.0,-0.0,0.04,0.0,0.0,-0.13,-0.02,-2.46,0.08,0.0,0.34,0.16,0.0,1.5,69.82,70.51,69.5,70.18,0.01,-0.0,0.3,1.0,0.0,0.0,0.0
2023/10/01 18:16:07,387,-0.0,0.0,-0.0,-0.04,0.0,-0.0,-0.13,-0.02,-2.45,0.08,0.0,-0.21,0.17,0.0,1.5,70.37,69.96,70.04,69.63,0.01,0.0,0.3,1.0,0.0,0.0,0.0
2023/10/01 18:16:07,388,-0.0,0.0,-0.0,0.04,0.0,0.0,-0.13,-0.02,-2.45,0.08,0.0,0.34,0.16,0.0,1.5,69.82,70.51,69.49,70.18,0.01,-0.0,0.3,1.0,0.0,0.0,0.0
2023/10/01 18:16:07,389,-0.0,0.0,-0.0,-0.04,0.0,-0.0,-0.13,-0.02,-2.45,0.08,0.0,-0.2,0.16,0.0,1.5,70.37,69.96,70.04,69.63,0.02,0.0,0.3,1.0,0.0,0.0,0.0
2023/10/01 18:16:07,390,-0.0,0.0,-0.0,0.04,0.0,0.0,-0.13,-0.02,-2.44,0.08,0.0,0.35,0.16,-0.01,1.5,69.82,70.5,69.48,70.2,0.02,-0.0,0.3,1.0,0.0,0.0,0.0
2023/10/01 18:16:07,391,-0.0,0.0,-0.0,-0.04,0.0,-0.0,-0.13,-0.02,-2.44,0.08,0.0,-0.2,0.16,-0.01,1.5,70.37,69.95,70.03,69.65,0.02,0.0,0.3,1.0,0.0,0.0,0.0
2023/10/01 18:16:07,392,0.0,0.0,-0.0,0.04,0.0,0.0,-0.13,-0.02,-2.43,0.08,0.0,0.35,0.16,0.0,1.5,69.81,70.51,69.5,70.19,0.02,-0.0,0.3,1.0,0.0,0.0,0.0
